[
    {
        "addr1": "서울특별시 강서구 화곡로56길 37-11(화곡동)", 
        "addr2": "대한민국 서울특별시 강서구 화곡로56길 37-11", 
        "lat": 37.551612, 
        "lng": 126.85189, 
        "menu": "흑염소, 보신탕, 전골", 
        "name": "가막골보신탕", 
        "tel": "02-2608-5255"
    }, 
    {
        "addr1": "서울특별시 광진구 아차산로78길 75", 
        "addr2": "대한민국 서울특별시 광진구 광장동 102", 
        "lat": 37.551761, 
        "lng": 127.111124, 
        "menu": "곰국시, 떡만두국", 
        "name": "가온", 
        "tel": "02-3436-7100"
    }, 
    {
        "addr1": "서울특별시 마포구 연남로 25(연남동)", 
        "addr2": "대한민국 서울특별시 마포구 연남동 515-19", 
        "lat": 37.561868, 
        "lng": 126.921892, 
        "menu": "돼지불백", 
        "name": "감나무집기사식당", 
        "tel": "02-325-8727"
    }, 
    {
        "addr1": "서울특별시 동대문구 고산자로 420", 
        "addr2": "대한민국 서울특별시 강남구 신사동 609-1", 
        "lat": 37.525874, 
        "lng": 127.029466, 
        "menu": "굴국밥, 뚝배기굴밥", 
        "name": "굴마을낙지촌", 
        "tel": "02-959-3004"
    }, 
    {
        "addr1": "서울특별시 강남구 논현로 봉은사로25길 15(논현동)", 
        "addr2": "대한민국 서울특별시 강남구 논현동 151-10", 
        "lat": 37.511654, 
        "lng": 127.030577, 
        "menu": "칼국수", 
        "name": "논현손칼국수", 
        "tel": "02-517-6030"
    }, 
    {
        "addr1": "서울특별시 종로구 통일로 184-11(교북동)", 
        "addr2": "대한민국 서울특별시 종로구 사직로 5", 
        "lat": 37.572748, 
        "lng": 126.960891, 
        "menu": "도가니탕, 해장국", 
        "name": "대성집", 
        "tel": "02-735-4259"
    }, 
    {
        "addr1": "서울특별시 강동구 풍성로 73길(둔촌동)", 
        "addr2": "대한민국 서울특별시 강동구 둔촌동 108-49", 
        "lat": 37.526493, 
        "lng": 127.145978, 
        "menu": "오리구이", 
        "name": "동구밖오리구이", 
        "tel": "02-484-5292"
    }, 
    {
        "addr1": "서울특별시 노원구 노해로75길 14-26(상계동)", 
        "addr2": "대한민국 서울특별시 노원구 상계동 708-3", 
        "lat": 37.654526, 
        "lng": 127.058876, 
        "menu": "두부전골, 쌈밥정식", 
        "name": "두부마을", 
        "tel": "02-931-6551"
    }, 
    {
        "addr1": "서울특별시 강동구 아리수로93가길 250-8", 
        "addr2": "대한민국 서울특별시 강동구 강일동 145-2", 
        "lat": 37.577037, 
        "lng": 127.167867, 
        "menu": "매운탕", 
        "name": "등나무집", 
        "tel": "02-429-1668"
    }, 
    {
        "addr1": "서울특별시 마포구 백범로 36길 2(공덕동)", 
        "addr2": "대한민국 서울특별시 마포구 공덕동 445-8", 
        "lat": 37.54412, 
        "lng": 126.949528, 
        "menu": "설렁탕", 
        "name": "마포양지설렁탕", 
        "tel": "02-716-8602"
    }, 
    {
        "addr1": "서울특별시 마포구 토정로 312(용강동)", 
        "addr2": "대한민국 서울특별시 마포구 용강동 50-13", 
        "lat": 37.539843, 
        "lng": 126.943279, 
        "menu": "한우양지설렁탕", 
        "name": "마포옥", 
        "tel": "02-716-6661"
    }, 
    {
        "addr1": "서울특별시 마포구 월드컵로 142(성산동)", 
        "addr2": "대한민국 서울특별시 마포구 성산동 260-14", 
        "lat": 37.56059, 
        "lng": 126.906366, 
        "menu": "만두전골, 국수전골", 
        "name": "만나식당", 
        "tel": "02-323-0726"
    }, 
    {
        "addr1": "서울특별시 광진구 자양로 187-1(구의동)", 
        "addr2": "대한민국 서울특별시 광진구 구의동 253-14", 
        "lat": 37.544484, 
        "lng": 127.084515, 
        "menu": "오리꼬치구이, 한방백숙", 
        "name": "맛있어꼭!오리", 
        "tel": "02-3437-9252"
    }, 
    {
        "addr1": "서울특별시 노원구 동일로176길 42", 
        "addr2": "대한민국 서울특별시 노원구 공릉1.3동 633-1", 
        "lat": 37.620252, 
        "lng": 127.077319, 
        "menu": "복요리", 
        "name": "매일복집", 
        "tel": "02-973-1747"
    }, 
    {
        "addr1": "서울특별시 중랑구 중랑역로 268(묵동)", 
        "addr2": "대한민국 서울특별시 중랑구 묵1동 163-2", 
        "lat": 37.615923, 
        "lng": 127.077956, 
        "menu": "국밥", 
        "name": "먹고을전주콩나물국밥", 
        "tel": "02-977-0038"
    }, 
    {
        "addr1": "서울특별시 서초구 남부순환로350길 30(양재동)", 
        "addr2": "대한민국 서울특별시 서초구 양재동 13-6", 
        "lat": 37.483407, 
        "lng": 127.03605, 
        "menu": "메기매운탕, 메기불고기", 
        "name": "메기대감", 
        "tel": "02-3461-4008"
    }, 
    {
        "addr1": "서울특별시 동대문구 고산자로 420(용두동)", 
        "addr2": "대한민국 서울특별시 동대문구 용두동 26-14", 
        "lat": 37.577094, 
        "lng": 127.038781, 
        "menu": "짜장면", 
        "name": "메이찬", 
        "tel": "02-957-6665"
    }, 
    {
        "addr1": "서울특별시 강서구 강서로 344(내발산동)", 
        "addr2": "대한민국 서울특별시 강서구 내발산동 657-1", 
        "lat": 37.556256, 
        "lng": 126.837845, 
        "menu": "삼계탕", 
        "name": "발산삼계탕", 
        "tel": "02-3662-3930"
    }, 
    {
        "addr1": "서울특별시 강동구 상암로 286", 
        "addr2": "대한민국 서울특별시 강동구 명일동 222-3", 
        "lat": 37.545707, 
        "lng": 127.154175, 
        "menu": "물막국수, 묵밥", 
        "name": "봉평메밀촌", 
        "tel": "02-426-0338"
    }, 
    {
        "addr1": "서울특별시 동대문구 천호대로29가길 17(용두동)", 
        "addr2": "대한민국 서울특별시 동대문구 용두동 39-761", 
        "lat": 37.573868, 
        "lng": 127.04113, 
        "menu": "한정식(돌솥밥)", 
        "name": "산천가든", 
        "tel": "02-966-2713"
    }, 
    {
        "addr1": "서울특별시 성북구 보문로 102-6", 
        "addr2": "대한민국 서울특별시 성북구 보문동4가 2-1", 
        "lat": 37.58427, 
        "lng": 127.020357, 
        "menu": "갈매기살", 
        "name": "서울갈매기", 
        "tel": "02-928-0366"
    }, 
    {
        "addr1": "서울특별시 서대문구 응암로 133(북가좌동)", 
        "addr2": "대한민국 서울특별시 서대문구 북가좌동 334-4", 
        "lat": 37.584497, 
        "lng": 126.914265, 
        "menu": "한정식", 
        "name": "소담한정식뷔페", 
        "tel": "02-306-3500"
    }, 
    {
        "addr1": "서울특별시 성북구 성북로15길 8(성북동)", 
        "addr2": "대한민국 서울특별시 성북구 성북동 128-16", 
        "lat": 37.593115, 
        "lng": 127.000328, 
        "menu": "설렁탕, 곰국수", 
        "name": "손가네곰국수", 
        "tel": "02-743-8937"
    }, 
    {
        "addr1": "서울특별시 강동구 풍성로37가길 5", 
        "addr2": "대한민국 서울특별시 강동구 성내2동 285-4", 
        "lat": 37.533452, 
        "lng": 127.12668, 
        "menu": "보쌈", 
        "name": "수향보쌈칼국수", 
        "tel": "02-478-8308"
    }, 
    {
        "addr1": "서울특별시 양천구 중앙로32길 43(신정동)", 
        "addr2": "대한민국 서울특별시 양천구 신정1동 1048-20", 
        "lat": 37.519566, 
        "lng": 126.858455, 
        "menu": "보신탕, 수육", 
        "name": "양천식당", 
        "tel": "02-2642-4747"
    }, 
    {
        "addr1": "서울특별시 용산구 청파로 329", 
        "addr2": "대한민국 서울특별시 용산구 청파동1가 149-3", 
        "lat": 37.548981, 
        "lng": 126.969693, 
        "menu": "빠가사리매운탕", 
        "name": "양평민물고기매운탕", 
        "tel": "02-712-6657"
    }, 
    {
        "addr1": "서울특별시 영등포구 국회대로36길 13", 
        "addr2": "대한민국 서울특별시 영등포구 당산동3가 87", 
        "lat": 37.526026, 
        "lng": 126.898125, 
        "menu": "회, 매운탕", 
        "name": "어부수산", 
        "tel": "02-2636-8892"
    }, 
    {
        "addr1": "서울특별시 은평구 진흥로 121-1(대조동)", 
        "addr2": "대한민국 서울특별시 은평구 대조동 43-7", 
        "lat": 37.607584, 
        "lng": 126.923613, 
        "menu": "돈가스", 
        "name": "역촌왕돈까스", 
        "tel": "02-355-2777"
    }, 
    {
        "addr1": "서울특별시 서대문구 연희맛로 37(연희동)", 
        "addr2": "대한민국 서울특별시 서대문구 연희동 133-20", 
        "lat": 37.568645, 
        "lng": 126.931168, 
        "menu": "칼국수", 
        "name": "연희동칼국수", 
        "tel": "02-333-3955"
    }, 
    {
        "addr1": "서울특별시 마포구 광성로 17(신수동)", 
        "addr2": "대한민국 서울특별시 마포구 구수동 68-13", 
        "lat": 37.54462, 
        "lng": 126.932391, 
        "menu": "영광굴비구이", 
        "name": "영광식당", 
        "tel": "02-714-6161"
    }, 
    {
        "addr1": "서울특별시 강서구 까치산로 35(화곡동, 화곡본동시장 내)", 
        "addr2": "대한민국 서울특별시 용산구 용문동 18-4", 
        "lat": 37.536344, 
        "lng": 126.961166, 
        "menu": "족발", 
        "name": "영양족발순대국", 
        "tel": "02-2699-7914"
    }, 
    {
        "addr1": "서울특별시 강남구 도산대로11길 18(신사동)", 
        "addr2": "대한민국 서울특별시 강남구 신사동 536-3", 
        "lat": 37.518597, 
        "lng": 127.022605, 
        "menu": "마살라치킨스테이크", 
        "name": "오꼬꼬(O'coco)", 
        "tel": "02-3444-3313"
    }, 
    {
        "addr1": "서울특별시 동대문구 고산자로 28길 39(용두동)", 
        "addr2": "대한민국 서울특별시 중랑구 면목동 626-17", 
        "lat": 37.57923, 
        "lng": 127.087292, 
        "menu": "모둠생선구이, 삼겹살", 
        "name": "옥돌회관", 
        "tel": "02-965-1755"
    }, 
    {
        "addr1": "서울특별시 광진구 능동로37길 14(중곡동)", 
        "addr2": "대한민국 서울특별시 광진구 중곡동 88-21", 
        "lat": 37.556705, 
        "lng": 127.090876, 
        "menu": "바다장어구이", 
        "name": "우리맛금일푸른바다", 
        "tel": "02-454-7661"
    }, 
    {
        "addr1": "서울특별시 관악구 신림로28길 34", 
        "addr2": "대한민국 서울특별시 관악구 서림동 110-6", 
        "lat": 37.472323, 
        "lng": 126.935254, 
        "menu": "곰탕", 
        "name": "원조나주곰탕", 
        "tel": "02-886-9353"
    }, 
    {
        "addr1": "서울특별시 중구 삼일대로12길 16(을지로2가)", 
        "addr2": "대한민국 서울특별시 중구 을지로2가 101-32", 
        "lat": 37.566618, 
        "lng": 126.988607, 
        "menu": "설렁탕", 
        "name": "이남장", 
        "tel": "02-2267-4081"
    }, 
    {
        "addr1": "서울특별시 구로구 경인로 18(오류동)", 
        "addr2": "대한민국 서울특별시 구로구 오류동 108-75", 
        "lat": 37.489042, 
        "lng": 126.824876, 
        "menu": "짬뽕수제비", 
        "name": "이천성모메존칼국수", 
        "tel": "02-2625-4821"
    }, 
    {
        "addr1": "서울특별시 관악구 봉천로 486", 
        "addr2": "대한민국 서울특별시 관악구 봉천동 858-3", 
        "lat": 37.4816, 
        "lng": 126.953724, 
        "menu": "삼계탕, 보신탕", 
        "name": "장수집", 
        "tel": "02-882-1490"
    }, 
    {
        "addr1": "서울특별시 은평구 통일로65길 12-2(대조동)", 
        "addr2": "대한민국 서울특별시 은평구 대조동 10-1", 
        "lat": 37.611001, 
        "lng": 126.928834, 
        "menu": "해장국", 
        "name": "진양평해장국", 
        "tel": "02-382-8281"
    }, 
    {
        "addr1": "서울특별시 광진구 능동로 254", 
        "addr2": "대한민국 서울특별시 광진구 능동 315-3", 
        "lat": 37.552584, 
        "lng": 127.077397, 
        "menu": "한방삼계탕, 닭볶음탕", 
        "name": "진한방삼계탕", 
        "tel": "02-455-6020"
    }, 
    {
        "addr1": "경기도 하남시 미사대로 596(덕풍동)", 
        "addr2": "대한민국 경기도 하남시 신장동", 
        "lat": 37.54147, 
        "lng": 127.213389, 
        "menu": "칼국수, 명이마늘보쌈", 
        "name": "청와삼대명이보쌈·칼국수", 
        "tel": "031-796-5266"
    }, 
    {
        "addr1": "서울특별시 동대문구 답십리로50길 6(답십리동)", 
        "addr2": "대한민국 서울특별시 송파구 석촌동 273-5", 
        "lat": 37.500656, 
        "lng": 127.106598, 
        "menu": "한방약오리, 오리전골", 
        "name": "풍년식당", 
        "tel": "02-2212-1904"
    }, 
    {
        "addr1": "서울특별시 도봉구 노해로 327(창동)", 
        "addr2": "대한민국 서울특별시 종로구 낙원동 272", 
        "lat": 37.572962, 
        "lng": 126.987332, 
        "menu": "생갈비, 한정식", 
        "name": "하누소", 
        "tel": "02-900-9900"
    }, 
    {
        "addr1": "서울특별시 종로구 평창문화로 28-7", 
        "addr2": "대한민국 서울특별시 종로구 평창동 281-1", 
        "lat": 37.60403, 
        "lng": 126.964609, 
        "menu": "추탕, 미꾸리어죽", 
        "name": "형제추어탕", 
        "tel": "02-919-4455"
    }, 
    {
        "addr1": "부산광역시 기장군 기장읍 차성로 327-2", 
        "addr2": "대한민국 부산광역시 기장군 기장읍 동부리 117-10", 
        "lat": 35.246938, 
        "lng": 129.213432, 
        "menu": "복요리", 
        "name": "가마솥생복집", 
        "tel": "051-722-2995"
    }, 
    {
        "addr1": "울산광역시 울주군 청량면 청량천변로 123", 
        "addr2": "대한민국 울산광역시 울주군 청량면 문죽리 895-2", 
        "lat": 35.526906, 
        "lng": 129.260504, 
        "menu": "오리불고기, 오리탕", 
        "name": "감나무집", 
        "tel": "052-249-9202"
    }, 
    {
        "addr1": "부산광역시 북구 효열로 25", 
        "addr2": "대한민국 부산광역시 북구 금곡동 1116-2", 
        "lat": 35.248351, 
        "lng": 129.014756, 
        "menu": "장어구이", 
        "name": "금곡장어마을", 
        "tel": "051-361-4222"
    }, 
    {
        "addr1": "부산광역시 기장군 기장읍 기장해안로 70  ", 
        "addr2": "대한민국 부산광역시 기장군 기장읍 시랑리 572-4", 
        "lat": 35.185358, 
        "lng": 129.211351, 
        "menu": "짚불구이, 양념구이", 
        "name": "기장곰장어", 
        "tel": "051-721-2934"
    }, 
    {
        "addr1": "울산광역시 울주군 서생면 신암해안길 13", 
        "addr2": "대한민국 울산광역시 울주군 서생면 신암리 372", 
        "lat": 35.346762, 
        "lng": 129.322447, 
        "menu": "짚불곰장어", 
        "name": "김양집", 
        "tel": "052-239-5539"
    }, 
    {
        "addr1": "부산광역시 동래구 온천장로107번길 10(온천동)", 
        "addr2": "대한민국 부산광역시 동래구 온천1동 184-29", 
        "lat": 35.216189, 
        "lng": 129.081112, 
        "menu": "물회, 꽃게된장조림", 
        "name": "깃발집", 
        "tel": "051-553-4012"
    }, 
    {
        "addr1": "부산광역시 사상구 광장로 68", 
        "addr2": "대한민국 부산광역시 사상구 광장로 68", 
        "lat": 35.161711, 
        "lng": 128.984049, 
        "menu": "갈비탕", 
        "name": "대궐안집", 
        "tel": "051-322-1223"
    }, 
    {
        "addr1": "부산광역시 동래구 동래로116번길 39", 
        "addr2": "대한민국 부산광역시 동래구 복천동 319-1", 
        "lat": 35.205274, 
        "lng": 129.084668, 
        "menu": "삼계탕, 약탕", 
        "name": "동래삼계탕", 
        "tel": "051-555-2464"
    }, 
    {
        "addr1": "부산광역시 중구 부평1길 7", 
        "addr2": "대한민국 부산광역시 중구 부평동2가 56-4", 
        "lat": 35.09998, 
        "lng": 129.026065, 
        "menu": "쇠고기, 해초비빔밥", 
        "name": "만방하릅소", 
        "tel": "051-243-2431"
    }, 
    {
        "addr1": "울산광역시 북구 동산길 24(상안동)", 
        "addr2": "대한민국 울산광역시 북구 상안동 680-1", 
        "lat": 35.619889, 
        "lng": 129.335489, 
        "menu": "오리탕, 오리불고기", 
        "name": "상안가든", 
        "tel": "052-295-0593"
    }, 
    {
        "addr1": "부산광역시 해운대구 청사포로58번길 118(중동)", 
        "addr2": "대한민국 부산광역시 해운대구 청사포로58번길 118", 
        "lat": 35.160642, 
        "lng": 129.191048, 
        "menu": "조개구이, 장어구이", 
        "name": "수민이네", 
        "tel": "051-701-7661"
    }, 
    {
        "addr1": "부산광역시 강서구 공항로811번다길 23-19(대저2동)", 
        "addr2": "대한민국", 
        "lat": 35.182016, 
        "lng": 128.95417, 
        "menu": "비빔칼국수, 선지국수", 
        "name": "시장분식", 
        "tel": "051-973-8735"
    }, 
    {
        "addr1": "부산광역시 중구 해관로 20-3", 
        "addr2": "대한민국 부산광역시 동구 초량동 295-6", 
        "lat": 35.118533, 
        "lng": 129.038702, 
        "menu": "주꾸미, 빈대떡", 
        "name": "실비집", 
        "tel": "051-245-6806"
    }, 
    {
        "addr1": "부산광역시 남구 지게골로 7(문현동)", 
        "addr2": "대한민국 부산광역시 남구 문현4동 837-2", 
        "lat": 35.135615, 
        "lng": 129.068116, 
        "menu": "곱창, 삼겹살", 
        "name": "칠성식당", 
        "tel": "051-632-0749"
    }, 
    {
        "addr1": "부산광역시 강서구 상덕로 52", 
        "addr2": "대한민국 부산광역시 강서구 강동동 2102-1", 
        "lat": 35.191746, 
        "lng": 128.909032, 
        "menu": "양념구이, 훈제바비큐", 
        "name": "칡넝쿨", 
        "tel": "051-971-6569"
    }, 
    {
        "addr1": "부산광역시 사하구 동매로 50", 
        "addr2": "대한민국 부산광역시 사하구 하단동 609-1", 
        "lat": 35.103234, 
        "lng": 128.963829, 
        "menu": "장어구이", 
        "name": "통영장어무한리필", 
        "tel": "051-207-0589"
    }, 
    {
        "addr1": "울산광역시 남구 중앙로208번길 12(신정동)", 
        "addr2": "대한민국 울산광역시 남구 신정3동 579-4", 
        "lat": 35.539933, 
        "lng": 129.31422, 
        "menu": "육회비빔밥, 한우물회", 
        "name": "함양집", 
        "tel": "052-275-6947"
    }, 
    {
        "addr1": "울산광역시 울주군 청량면 신덕하1길 9", 
        "addr2": "대한민국 울산광역시 울주군 청량면 상남리 588", 
        "lat": 35.492445, 
        "lng": 129.306142, 
        "menu": "게장정식", 
        "name": "효정밥상", 
        "tel": "052-227-4995"
    }, 
    {
        "addr1": "인천광역시 중구 차이나타운로 43(북성동3가)", 
        "addr2": "대한민국 인천광역시 중구 차이나타운로 43", 
        "lat": 37.475428, 
        "lng": 126.619589, 
        "menu": "짜장면", 
        "name": "공화춘", 
        "tel": "032-765-0571"
    }, 
    {
        "addr1": "인천광역시 남동구 구월남로 117(구월동)", 
        "addr2": "대한민국 인천광역시 남동구 구월1동 1134-4", 
        "lat": 37.453532, 
        "lng": 126.702623, 
        "menu": "장어구이, 떡갈비", 
        "name": "구진포민물장어", 
        "tel": "032-421-9595"
    }, 
    {
        "addr1": "인천광역시 남동구 문화로133번길 44(구월3동)", 
        "addr2": "대한민국 인천광역시 남동구 구월3동 1107-18", 
        "lat": 37.451188, 
        "lng": 126.69717, 
        "menu": "우렁쌈밥, 두루치기", 
        "name": "대관령숯불갈비", 
        "tel": "032-438-8961"
    }, 
    {
        "addr1": "인천광역시 강화군 송해면 상도숭뢰길116번길 39-10", 
        "addr2": "대한민국 인천광역시 강화군 송해면 숭뢰리 221", 
        "lat": 37.783055, 
        "lng": 126.477096, 
        "menu": "붕어찜, 메기매운탕", 
        "name": "돌기와집", 
        "tel": "032-934-5482"
    }, 
    {
        "addr1": "인천광역시 남동구 예술로 220(구월1동)", 
        "addr2": "대한민국 인천광역시 남동구 구월1동 1134-2", 
        "lat": 37.453516, 
        "lng": 126.701944, 
        "menu": "보리밥정식, 보쌈", 
        "name": "명동보리밥", 
        "tel": "032-435-3392"
    }, 
    {
        "addr1": "인천광역시 남구 독배로403번길 10(용현동)", 
        "addr2": "대한민국 인천광역시 남구 용현2동 509-17", 
        "lat": 37.456042, 
        "lng": 126.649144, 
        "menu": "아귀탕, 아귀찜, 해물찜", 
        "name": "성진물텀벙", 
        "tel": "032-883-1771"
    }, 
    {
        "addr1": "인천광역시 연수구 예술로20번길 41(선학동)", 
        "addr2": "대한민국 인천광역시 연수구 선학동 99-7", 
        "lat": 37.435296, 
        "lng": 126.701472, 
        "menu": "옻닭, 영양탕", 
        "name": "용두레", 
        "tel": "032-427-0720"
    }, 
    {
        "addr1": "인천광역시 중구 개항로45번길 12-20(내동)", 
        "addr2": "대한민국 인천광역시 중구 내동 151", 
        "lat": 37.472729, 
        "lng": 126.627988, 
        "menu": "오리백숙, 닭볶음탕", 
        "name": "월아천", 
        "tel": "032-777-8884"
    }, 
    {
        "addr1": "인천광역시 강화군 선원면 더리미길 2", 
        "addr2": "대한민국 인천광역시 강화군 선원면 신정리 316", 
        "lat": 37.723896, 
        "lng": 126.512733, 
        "menu": "민물장어, 갯벌장어", 
        "name": "일미산장숯불장어", 
        "tel": "032-933-8585"
    }, 
    {
        "addr1": "인천광역시 계양구 역골로 79(다남동)", 
        "addr2": "대한민국 인천광역시 계양구 다남동 103-41", 
        "lat": 37.566003, 
        "lng": 126.724772, 
        "menu": "보신탕, 닭백숙, 토끼요리", 
        "name": "전원가든", 
        "tel": "032-512-4817"
    }, 
    {
        "addr1": "인천광역시 서구 신진말로 37", 
        "addr2": "대한민국 인천광역시 서구 가좌3동 197-11", 
        "lat": 37.493302, 
        "lng": 126.679702, 
        "menu": "순대국밥, 곱창전골", 
        "name": "진천토종순대", 
        "tel": "032-574-0798"
    }, 
    {
        "addr1": "인천광역시 강화군 내가면 중앙로 1200", 
        "addr2": "대한민국 인천광역시 강화군 내가면 외포리 385", 
        "lat": 37.704674, 
        "lng": 126.390356, 
        "menu": "꽃게탕, 꽃게찜", 
        "name": "충남서산집", 
        "tel": "032-933-1667"
    }, 
    {
        "addr1": "인천광역시 중구 서해대로410번길 35(신흥동3가)", 
        "addr2": "대한민국 인천광역시 중구 신흥동3가", 
        "lat": 37.437084, 
        "lng": 126.626329, 
        "menu": "영양탕, 삼계탕", 
        "name": "화성영양탕", 
        "tel": "032-882-4556"
    }, 
    {
        "addr1": "인천광역시 부평구 청중로29번길 34(청천동)", 
        "addr2": "대한민국 인천광역시 부평구 청천동 48-30", 
        "lat": 37.518841, 
        "lng": 126.699137, 
        "menu": "돼지모둠바비큐, 파스타", 
        "name": "힐록", 
        "tel": "032-502-3878"
    }, 
    {
        "addr1": "경기도 시흥시 시흥대로 248-20(군자동)", 
        "addr2": "대한민국 경기도 시흥시 군자동", 
        "lat": 37.3621, 
        "lng": 126.807913, 
        "menu": "생선구이, 명태조림", 
        "name": "개성집", 
        "tel": "031-319-9211"
    }, 
    {
        "addr1": "경기도 수원시 팔달구 팔달로52번길 43(고등동)", 
        "addr2": "대한민국 경기도 수원시 팔달구 고등동 139-27", 
        "lat": 37.275015, 
        "lng": 127.002948, 
        "menu": "짜장면, 탕수육", 
        "name": "고등반점", 
        "tel": "031-251-3291"
    }, 
    {
        "addr1": "경기도 수원시 영통구 인계로220번길 6-67(매탄동)", 
        "addr2": "대한민국 경기도 수원시 팔달구 인계동 1132-5", 
        "lat": 37.258934, 
        "lng": 127.032167, 
        "menu": "묵은지찌개", 
        "name": "골목집", 
        "tel": "031-245-9158"
    }, 
    {
        "addr1": "경기도 수원시 영통구 동수원로513번길 11(매탄동)", 
        "addr2": "대한민국 경기도 수원시 영통구 매탄동 131-41", 
        "lat": 37.273405, 
        "lng": 127.046304, 
        "menu": "해물탕", 
        "name": "군포해물탕", 
        "tel": "031-215-3705"
    }, 
    {
        "addr1": "경기도 수원시 장안구 만석로 183(송죽동)", 
        "addr2": "대한민국 경기도 수원시 장안구 송죽동 256-20", 
        "lat": 37.303095, 
        "lng": 126.999503, 
        "menu": "주꾸미볶음, 해물파전", 
        "name": "그집쭈꾸미볶음", 
        "tel": "031-241-1359"
    }, 
    {
        "addr1": "경기도 수원시 영통구 동수원로537번길 7(원천동)", 
        "addr2": "대한민국 경기도 수원시 영통구 원천동 85-24", 
        "lat": 37.274044, 
        "lng": 127.048582, 
        "menu": "생선구이", 
        "name": "남해생선구이", 
        "tel": "031-213-4962"
    }, 
    {
        "addr1": "경기도 수원시 팔달구 창룡대로7번길 11(북수동)", 
        "addr2": "대한민국 경기도 수원시 팔달구 북수동 311-14", 
        "lat": 37.282404, 
        "lng": 127.017529, 
        "menu": "칼국수", 
        "name": "대왕칼국수", 
        "tel": "031-252-2820"
    }, 
    {
        "addr1": "경기도 이천시 모가면 진상미로 1585", 
        "addr2": "대한민국 경기도 이천시 모가면 소고리 375-1", 
        "lat": 37.194501, 
        "lng": 127.466915, 
        "menu": "돼지주물럭, 홍어삼합", 
        "name": "대자연호남식당", 
        "tel": "031-631-5870"
    }, 
    {
        "addr1": "경기도 수원시 팔달구 향교로 53(매산로2가)", 
        "addr2": "대한민국 경기도 수원시 팔달구 매산로2가 8-4", 
        "lat": 37.269599, 
        "lng": 127.00667, 
        "menu": "갈빗살, 생목살", 
        "name": "대통생소금구이", 
        "tel": "031-255-6692"
    }, 
    {
        "addr1": "경기도 연천군 신서면 연신로 1154", 
        "addr2": "대한민국 경기도 연천군 신서면 도신리 285-26", 
        "lat": 38.184684, 
        "lng": 127.107606, 
        "menu": "부대찌개, 동태찌개", 
        "name": "대호식당", 
        "tel": "031-834-1416"
    }, 
    {
        "addr1": "경기도 수원시 팔달구 향교로 100", 
        "addr2": "대한민국 경기도 수원시 팔달구 매산로3가 46-1", 
        "lat": 37.271099, 
        "lng": 127.011336, 
        "menu": "부대찌개", 
        "name": "두꺼비집", 
        "tel": "031-242-4267"
    }, 
    {
        "addr1": "경기도 화성시 장안면 한천1길 32-7  ", 
        "addr2": "대한민국 경기도 화성시 장안면 독정리 952-4", 
        "lat": 37.066871, 
        "lng": 126.850301, 
        "menu": "커피", 
        "name": "두오즈", 
        "tel": "031-358-3670"
    }, 
    {
        "addr1": "경기도 수원시 장안구 율전로98번길 7-1(율전동)", 
        "addr2": "대한민국 경기도 수원시 장안구 율전동 297-2", 
        "lat": 37.298095, 
        "lng": 126.969228, 
        "menu": "족발, 막국수", 
        "name": "둔내막국수", 
        "tel": "031-296-3522"
    }, 
    {
        "addr1": "경기도 양주시 부흥로1398번길 189(남방동)", 
        "addr2": "대한민국 경기도 양주시 남방동 440-1", 
        "lat": 37.776451, 
        "lng": 127.031485, 
        "menu": "해물칼국수, 바지락칼국수", 
        "name": "밀밭사랑칼국수", 
        "tel": "031 845-5522"
    }, 
    {
        "addr1": "경기도 가평군 청평면 갈오현로10번길 21  ", 
        "addr2": "대한민국 경기도 가평군 청평면 청평리 424-4", 
        "lat": 37.736161, 
        "lng": 127.418144, 
        "menu": "쌈밥정식, 애곤이탕", 
        "name": "밤나무집", 
        "tel": "031-585-9966"
    }, 
    {
        "addr1": "경기도 수원시 장안구 금당로 1(조원동)", 
        "addr2": "대한민국 경기도 수원시 장안구 조원동 851-5", 
        "lat": 37.303703, 
        "lng": 127.012696, 
        "menu": "해물국수전골", 
        "name": "백청우칼국수", 
        "tel": "031-246-2005"
    }, 
    {
        "addr1": "경기도 수원시 장안구 팔달로 271(영화동)", 
        "addr2": "대한민국 경기도 수원시 장안구 영화동 282-2", 
        "lat": 37.289597, 
        "lng": 127.014363, 
        "menu": "만두, 쫄면", 
        "name": "보영만두", 
        "tel": "031-242-9076"
    }, 
    {
        "addr1": "경기도 연천군 연천읍 현문로 526-29", 
        "addr2": "대한민국 경기도 연천군 연천읍 고문리 832", 
        "lat": 38.062116, 
        "lng": 127.121858, 
        "menu": "메기매운탕, 참게매운탕", 
        "name": "불탄소가든", 
        "tel": "031-834-2770"
    }, 
    {
        "addr1": "경기도 이천시 모가면 진상미로1178번길 17", 
        "addr2": "대한민국 경기도 이천시 설성면 상봉리 511-1", 
        "lat": 37.15815, 
        "lng": 127.504402, 
        "menu": "두부전골, 보쌈정식", 
        "name": "서경들손두부", 
        "tel": "031-633-1701"
    }, 
    {
        "addr1": "경기도 수원시 권선구 세지로66번길 29(권선동)", 
        "addr2": "대한민국 경기도 수원시 권선구 권선동 996-8", 
        "lat": 37.257462, 
        "lng": 127.018946, 
        "menu": "매운탕, 오징어볶음", 
        "name": "석산민물매운탕", 
        "tel": "031-233-8145"
    }, 
    {
        "addr1": "경기도 가평군 청평면 수리재길 252  ", 
        "addr2": "대한민국 경기도 가평군 청평면 상천리 638-1", 
        "lat": 37.785072, 
        "lng": 127.434002, 
        "menu": "손두부전골", 
        "name": "수리재시골밥상", 
        "tel": "031-584-3240"
    }, 
    {
        "addr1": "경기도 평택시 쇼핑로 39-1(신장동)", 
        "addr2": "대한민국 경기도 평택시 신장동 325-12", 
        "lat": 37.081224, 
        "lng": 127.053926, 
        "menu": "부대찌개, 스테이크", 
        "name": "숯고개부대찌개", 
        "tel": "031-666-2768"
    }, 
    {
        "addr1": "경기도 수원시 장안구 정조로1088번길 11(송죽동)", 
        "addr2": "대한민국 경기도 수원시 장안구 송죽동 456-3", 
        "lat": 37.302651, 
        "lng": 127.003058, 
        "menu": "쇠고기·돼지고기구이", 
        "name": "신사강정육식당", 
        "tel": "031-247-5454"
    }, 
    {
        "addr1": "경기도 연천군 연천읍 문화로 82  ", 
        "addr2": "대한민국 경기도 연천군 연천읍 옥산리 460-1", 
        "lat": 38.10078, 
        "lng": 127.078137, 
        "menu": "손칼국수, 얼큰수제비", 
        "name": "아가페식당", 
        "tel": "031-834-4297"
    }, 
    {
        "addr1": "경기도 연천군 신서면 연신로 1616", 
        "addr2": "대한민국 경기도 연천군 신서면 대광리 170-30", 
        "lat": 38.213708, 
        "lng": 127.139241, 
        "menu": "숯더덕오리구이", 
        "name": "약수오리", 
        "tel": "031-834-1952"
    }, 
    {
        "addr1": "경기도 가평군 가평읍 태봉안길 54", 
        "addr2": "대한민국 경기도 가평군 가평읍 하색리 500", 
        "lat": 37.806237, 
        "lng": 127.486024, 
        "menu": "두부전골, 모두부", 
        "name": "양태봉촌두부", 
        "tel": "031-582-0058"
    }, 
    {
        "addr1": "경기도 안산시 상록구 반월천북길 139", 
        "addr2": "대한민국 경기도 안산시 상록구 팔곡일동 163-2", 
        "lat": 37.311481, 
        "lng": 126.889041, 
        "menu": "바비큐, 파스타", 
        "name": "유니스의정원", 
        "tel": "031-437-2045"
    }, 
    {
        "addr1": "경기도 여주시 여흥로69번길 26-13", 
        "addr2": "대한민국 경기도 여주군 여주읍 하리 196-10", 
        "lat": 37.298663, 
        "lng": 127.633136, 
        "menu": "황태해장국, 내장탕", 
        "name": "정원뚝배기", 
        "tel": "031-883-2878"
    }, 
    {
        "addr1": "경기도 수원시 장안구 파장천로 92(파장동)", 
        "addr2": "대한민국 경기도 수원시 장안구 파장동 328-1", 
        "lat": 37.31265, 
        "lng": 126.99928, 
        "menu": "콩마당정식", 
        "name": "콩마당", 
        "tel": "031-254-2827"
    }, 
    {
        "addr1": "경기도 하남시 검단산로 379(창우동)", 
        "addr2": "대한민국 경기도 하남시 창우동 516-4", 
        "lat": 37.542206, 
        "lng": 127.239889, 
        "menu": "빠가사리매운탕, 붕어찜", 
        "name": "털보집", 
        "tel": "031-792-3815"
    }, 
    {
        "addr1": "경기도 오산시 큰말길 15-54(세교동)", 
        "addr2": "대한민국 경기도 오산시 세교동 534-1", 
        "lat": 37.184916, 
        "lng": 127.033114, 
        "menu": "초계탕, 메밀전", 
        "name": "평양초계탕·막국수", 
        "tel": "031-372-9909"
    }, 
    {
        "addr1": "경기도 평택시 포승읍 연암길 87", 
        "addr2": "대한민국 경기도 평택시 포승읍 만호리 266-5", 
        "lat": 36.962051, 
        "lng": 126.847166, 
        "menu": "꽃게탕, 게장정식", 
        "name": "호성식당", 
        "tel": "031-681-7786"
    }, 
    {
        "addr1": "경기도 수원시 장안구 송원로41번길 9(송죽동)", 
        "addr2": "대한민국 경기도 수원시 장안구 송죽동 503-21", 
        "lat": 37.299318, 
        "lng": 127.006696, 
        "menu": "추어탕", 
        "name": "화홍추어탕", 
        "tel": "031-245-3660"
    }, 
    {
        "addr1": "강원도 춘천시 후만로 77", 
        "addr2": "대한민국 강원도 춘천시 후만로 77", 
        "lat": 37.876345, 
        "lng": 127.753093, 
        "menu": "닭갈비", 
        "name": "1.5닭갈비", 
        "tel": "033-253-8635"
    }, 
    {
        "addr1": "강원도 춘천시 신북읍 신샘밭로 359-8", 
        "addr2": "대한민국 Kangwon, 춘천시 신북읍 율문리 909-3", 
        "lat": 37.926347, 
        "lng": 127.746065, 
        "menu": "순대국", 
        "name": "가보자식당", 
        "tel": "033-243-7607"
    }, 
    {
        "addr1": "강원도 평창군 방림면 평창대로 158-4", 
        "addr2": "대한민국 Kangwon, 평창군 방림면 방림리 546-1", 
        "lat": 37.44066, 
        "lng": 128.429221, 
        "menu": "매운탕", 
        "name": "거기매운탕", 
        "tel": "033-334-1885"
    }, 
    {
        "addr1": "강원도 철원군 갈말읍 명성로139번안길 10", 
        "addr2": "대한민국 Kangwon, 갈말읍 지포리 125-2", 
        "lat": 38.144907, 
        "lng": 127.304875, 
        "menu": "매운탕", 
        "name": "남대천황가네매운탕", 
        "tel": "033-452-9800"
    }, 
    {
        "addr1": "강원도 철원군 갈말읍 내대1길 29-10", 
        "addr2": "대한민국 Kangwon, 갈말읍 내대리 675-7", 
        "lat": 38.201518, 
        "lng": 127.297698, 
        "menu": "막국수", 
        "name": "내대리막국수", 
        "tel": "033-452-3932"
    }, 
    {
        "addr1": "강원도 원주시 천사로 199", 
        "addr2": "대한민국 Kangwon, 원주시 일산동 193-10", 
        "lat": 37.35094, 
        "lng": 127.946243, 
        "menu": "갈치조림, 콩나물삼겹살", 
        "name": "누나네밥집", 
        "tel": "033-748-5955"
    }, 
    {
        "addr1": "강원도 양양군 양양읍 남문로 17-1", 
        "addr2": "대한민국 Kangwon, 양양군 양양읍 남문리 191-11", 
        "lat": 38.073337, 
        "lng": 128.620156, 
        "menu": "섭국", 
        "name": "담치마을", 
        "tel": "033-673-0012"
    }, 
    {
        "addr1": "강원도 정선군 정선읍 녹송1길 27", 
        "addr2": "대한민국 Kangwon, 정선군 정선읍 봉양리 49-3", 
        "lat": 37.382977, 
        "lng": 128.671561, 
        "menu": "황기족발", 
        "name": "동광식당", 
        "tel": "033-563-3100"
    }, 
    {
        "addr1": "강원도 원주시 원문로 108", 
        "addr2": "대한민국 Kangwon, 원주시 단계동 100-27", 
        "lat": 37.357021, 
        "lng": 127.935316, 
        "menu": "동태찜", 
        "name": "동해동태찜", 
        "tel": "033-743-7431"
    }, 
    {
        "addr1": "강원도 화천군 화천읍 평화로 333", 
        "addr2": "대한민국 Kangwon, 화천군 화천읍 대이리 339-1", 
        "lat": 38.087068, 
        "lng": 127.739741, 
        "menu": "두부전골, 매운탕", 
        "name": "미륵바위쉼터", 
        "tel": "033-441-0514"
    }, 
    {
        "addr1": "강원도 인제군 기린면 조침령로 496", 
        "addr2": "대한민국 Kangwon, 인제군 기린면 방동리 756-1", 
        "lat": 37.952458, 
        "lng": 128.358546, 
        "menu": "막국수", 
        "name": "방동막국수", 
        "tel": "033-461-0419"
    }, 
    {
        "addr1": "강원도 고성군 토성면 백촌1길 10", 
        "addr2": "대한민국 Kangwon, 고성군 토성면 백촌리 162", 
        "lat": 38.292975, 
        "lng": 128.541795, 
        "menu": "막국수", 
        "name": "백촌막국수", 
        "tel": "033-632-5422"
    }, 
    {
        "addr1": "강원도 동해시 일출로 129", 
        "addr2": "대한민국 Kangwon, 동해시 묵호진동 2-148", 
        "lat": 37.554938, 
        "lng": 129.120512, 
        "menu": "회, 매운탕, 대게", 
        "name": "부담없는횟집", 
        "tel": "033-533-1047"
    }, 
    {
        "addr1": "강원도 춘천시 후석로344번길 8(후평동)", 
        "addr2": "대한민국 Kangwon, 춘천시 후평3동 419-1", 
        "lat": 37.881649, 
        "lng": 127.749635, 
        "menu": "막국수, 총떡", 
        "name": "부안막국수", 
        "tel": "033-254-0654"
    }, 
    {
        "addr1": "강원도 속초시 청호로 117-8", 
        "addr2": "대한민국 Kangwon, 속초시 청호동 1090", 
        "lat": 38.200217, 
        "lng": 128.594201, 
        "menu": "복어찜, 순대", 
        "name": "북청아바이냉면", 
        "tel": "033-635-2795"
    }, 
    {
        "addr1": "강원도 강릉시 창해로14번길 34(견소동)", 
        "addr2": "대한민국 Kangwon, 강릉시 견소동 164", 
        "lat": 37.771731, 
        "lng": 128.948117, 
        "menu": "제철회", 
        "name": "비선횟집", 
        "tel": "033-653-4888"
    }, 
    {
        "addr1": "강원도 양양군 강현면 안골로 296-15", 
        "addr2": "대한민국 Kangwon, 양양군 강현면 적은리 90", 
        "lat": 38.117456, 
        "lng": 128.596283, 
        "menu": "추어탕", 
        "name": "솔거리추어탕", 
        "tel": "033-671-1360"
    }, 
    {
        "addr1": "강원도 영월군 영월읍 청령포로 48", 
        "addr2": "대한민국 Kangwon, 영월군 영월읍 방절리 155", 
        "lat": 37.184553, 
        "lng": 128.452866, 
        "menu": "곤드레돌솥밥", 
        "name": "솔잎가든", 
        "tel": "033-373-3323"
    }, 
    {
        "addr1": "강원도 양구군 남면 봉화산로 457", 
        "addr2": "대한민국 Kangwon, 양구군 남면 도촌리", 
        "lat": 38.075062, 
        "lng": 128.023878, 
        "menu": "시래기정식", 
        "name": "시래원", 
        "tel": "033-481-4200"
    }, 
    {
        "addr1": "강원도 홍천군 홍천읍 양지말길 17-4", 
        "addr2": "대한민국 Kangwon, 홍천군 홍천읍 하오안리 631-3", 
        "lat": 37.659595, 
        "lng": 127.831162, 
        "menu": "돼지구이, 양념갈비", 
        "name": "양지말화로구이", 
        "tel": "033-435-7533"
    }, 
    {
        "addr1": "강원도 양양군 손양면 동명로 289", 
        "addr2": "대한민국 Kangwon, 양양군 손양면 송전리 81-1", 
        "lat": 38.088114, 
        "lng": 128.65418, 
        "menu": "두부구이, 섭국", 
        "name": "옛뜰", 
        "tel": "033-672-7009"
    }, 
    {
        "addr1": "강원도 춘천시 후만로 81(후평동)", 
        "addr2": "대한민국 Kangwon, 춘천시 후평3동 801-11", 
        "lat": 37.8764, 
        "lng": 127.753413, 
        "menu": "닭갈비, 볶음밥", 
        "name": "우성닭갈비", 
        "tel": "033-254-0053"
    }, 
    {
        "addr1": "강원도 횡성군 횡성읍 삼일로 79", 
        "addr2": "대한민국 Kangwon, 횡성군 횡성읍 읍하리 495-4", 
        "lat": 37.49659, 
        "lng": 127.986012, 
        "menu": "한우해장국", 
        "name": "운동장해장국", 
        "tel": "033-345-1770"
    }, 
    {
        "addr1": "강원도 춘천시 신북읍 맥국2길 123", 
        "addr2": "대한민국 Kangwon, 춘천시 신북읍 유포리 62-2", 
        "lat": 37.946152, 
        "lng": 127.778345, 
        "menu": "막국수, 편육", 
        "name": "유포리막국수", 
        "tel": "033-242-5168"
    }, 
    {
        "addr1": "강원도 양구군 양구읍 양록길23번길 6-5", 
        "addr2": "대한민국 Kangwon, 양구군 양구읍 상리 519-14", 
        "lat": 38.10725, 
        "lng": 127.985597, 
        "menu": "매운등갈비찜, 도토리임자탕", 
        "name": "일촌", 
        "tel": "033-482-8879"
    }, 
    {
        "addr1": "강원도 영월군 영월읍 단종로 178-10", 
        "addr2": "대한민국 Kangwon, 영월군 영월읍 영흥리 1101-1", 
        "lat": 37.195524, 
        "lng": 128.45642, 
        "menu": "보리밥", 
        "name": "장릉보리밥집", 
        "tel": "033-374-3986"
    }, 
    {
        "addr1": "강원도 동해시 동굴로 69", 
        "addr2": "대한민국 Kangwon, 동해시 천곡동 1008-11", 
        "lat": 37.518053, 
        "lng": 129.111542, 
        "menu": "코다리조림", 
        "name": "참맛골", 
        "tel": "033-533-3776"
    }, 
    {
        "addr1": "강원도 강릉시 사임당로 113-3", 
        "addr2": "대한민국 Kangwon, 강릉시 홍제동 646", 
        "lat": 37.754964, 
        "lng": 128.865475, 
        "menu": "막국수, 수육", 
        "name": "형제막국수", 
        "tel": "033-645-9969"
    }, 
    {
        "addr1": "강원도 홍천군 북방면 홍천로 11", 
        "addr2": "대한민국 Kangwon, 홍천군 북방면 상화계리 329-9", 
        "lat": 37.701318, 
        "lng": 127.852428, 
        "menu": "한우", 
        "name": "홍천사랑말한우", 
        "tel": "033-435-9292"
    }, 
    {
        "addr1": "강원도 속초시 영랑해안길 95", 
        "addr2": "대한민국 Kangwon, 속초시 영랑동 129", 
        "lat": 38.214458, 
        "lng": 128.598042, 
        "menu": "생선모둠찜, 대구뽈찜", 
        "name": "황가네찜", 
        "tel": "033-635-2277"
    }, 
    {
        "addr1": "강원도 횡성군 횡성읍 문화체육로 40", 
        "addr2": "대한민국 Kangwon, 횡성군 횡성읍 읍하리 509-3", 
        "lat": 37.495368, 
        "lng": 127.98679, 
        "menu": "한우곰탕, 설렁탕", 
        "name": "횡성한우곰탕", 
        "tel": "033-343-4545"
    }, 
    {
        "addr1": "충청북도 청원군 미원면 미원시내2길 11-6", 
        "addr2": "대한민국 충청북도 청원군 미원면 미원리 493-2", 
        "lat": 36.632719, 
        "lng": 127.653831, 
        "menu": "올갱이해장국, 올갱이무침", 
        "name": "고향식당", 
        "tel": "043-297-1004"
    }, 
    {
        "addr1": "충청북도 제천시 용두대로 287(신월동)", 
        "addr2": "대한민국 충청북도 제천시 신월동 200", 
        "lat": 37.151163, 
        "lng": 128.188559, 
        "menu": "제천약초밥상, 약초떡갈비", 
        "name": "대보명가", 
        "tel": "043-643-3050"
    }, 
    {
        "addr1": "충청북도 충주시 충인8길 4-2(충의동)", 
        "addr2": "대한민국 충청북도 충주시 충의동 101", 
        "lat": 36.974916, 
        "lng": 127.928804, 
        "menu": "국밥, 순대, 김치만두", 
        "name": "덕산순대", 
        "tel": "043-842-2959"
    }, 
    {
        "addr1": "충청북도 옥천군 청산면 지전2길 14", 
        "addr2": "대한민국 충청북도 옥천군 청산면 지전1길 26", 
        "lat": 36.346003, 
        "lng": 127.792397, 
        "menu": "생선국수, 생선튀김", 
        "name": "선광집", 
        "tel": "043-732-8404"
    }, 
    {
        "addr1": "충청북도 영동군 양산면 천태산진입길 46", 
        "addr2": "대한민국 충청북도 영동군 양산면 누교리 619-1", 
        "lat": 36.156884, 
        "lng": 127.628477, 
        "menu": "능이백숙, 흑두부", 
        "name": "솔잎가든", 
        "tel": "043-743-9098"
    }, 
    {
        "addr1": "충청북도 제천시 중말8길 22(두학동)", 
        "addr2": "대한민국 충청북도 제천시 두학동 578", 
        "lat": 37.132555, 
        "lng": 128.254108, 
        "menu": "순두부, 산초·들기름두부구이", 
        "name": "시골순두부", 
        "tel": "043-643-9522"
    }, 
    {
        "addr1": "충청북도 청원군 오창읍 구룡택지로 17", 
        "addr2": "대한민국 충청북도 청원군 오창읍 구룡리 431-6", 
        "lat": 36.709397, 
        "lng": 127.413174, 
        "menu": "버섯전골, 오리백숙", 
        "name": "쌍곡자연산버섯", 
        "tel": "043-214-2228"
    }, 
    {
        "addr1": "충청북도 제천시 의병대로42길 75-12(두학동)", 
        "addr2": "대한민국 충청북도 제천시 두학동 735", 
        "lat": 37.127003, 
        "lng": 128.246906, 
        "menu": "두부전골, 순두부", 
        "name": "옛날순두부", 
        "tel": "043-644-9763"
    }, 
    {
        "addr1": "충청북도 괴산군 괴산읍 괴광로느티울길 8-2", 
        "addr2": "대한민국 충청북도 괴산군 괴산읍 대덕리 93-6", 
        "lat": 36.805198, 
        "lng": 127.818826, 
        "menu": "잡어매운탕, 메기매운탕", 
        "name": "우리매운탕", 
        "tel": "043-834-0005"
    }, 
    {
        "addr1": "충청북도 괴산군 괴산읍 읍내로 319  ", 
        "addr2": "대한민국 충청북도 괴산군 괴산읍 동부리 505-1", 
        "lat": 36.811502, 
        "lng": 127.795745, 
        "menu": "삼계탕", 
        "name": "중앙닭집", 
        "tel": "043-833-0414"
    }, 
    {
        "addr1": "충청북도 청주시 상당구 직지대로 817", 
        "addr2": "대한민국 충청북도 청주시 상당구 우암동 776-1", 
        "lat": 36.647239, 
        "lng": 127.482363, 
        "menu": "한방오리찜, 묵은지오리탕", 
        "name": "천하대장군", 
        "tel": "043-221-5289"
    }, 
    {
        "addr1": "충청북도 영동군 심천면 옥계폭포길 144", 
        "addr2": "대한민국 충청북도 영동군 심천면 고당리 992-1", 
        "lat": 36.213378, 
        "lng": 127.679217, 
        "menu": "우렁쌈장, 우렁된장찌개", 
        "name": "폭포가든", 
        "tel": "043-742-1777"
    }, 
    {
        "addr1": "충청북도 단양군 매포읍 평동14길 30 ", 
        "addr2": "대한민국 충청북도 단양군 매포읍 평동리 338-3", 
        "lat": 37.032235, 
        "lng": 128.301551, 
        "menu": "단양마늘찜닭", 
        "name": "한일맛집", 
        "tel": "043-422-6998"
    }, 
    {
        "addr1": "대전광역시 서구 괴정로 71-1(괴정동)", 
        "addr2": "대한민국 대전광역시 서구 괴정동 11-9", 
        "lat": 36.340539, 
        "lng": 127.382234, 
        "menu": "바지락칼국수", 
        "name": "갯벌바지락칼국수", 
        "tel": "042-524-9782"
    }, 
    {
        "addr1": "대전광역시 서구 용문로 32(괴정동)", 
        "addr2": "대한민국 대전광역시 서구 괴정동 48-20", 
        "lat": 36.33958, 
        "lng": 127.387214, 
        "menu": "칼국수, 주꾸미구이", 
        "name": "공주칼국수", 
        "tel": "042-527-9401"
    }, 
    {
        "addr1": "충청남도 청양군 청양읍 칠갑산로 225  ", 
        "addr2": "대한민국 충청남도 청양군 청양읍 읍내리 196-1", 
        "lat": 36.451247, 
        "lng": 126.801745, 
        "menu": "아귀찜, 아귀탕", 
        "name": "구미식당", 
        "tel": "041-943-3436"
    }, 
    {
        "addr1": "대전광역시 서구 장안로 53(흑석동)", 
        "addr2": "대한민국 대전광역시 서구 흑석동 283-6", 
        "lat": 36.250007, 
        "lng": 127.342498, 
        "menu": "추어탕, 미꾸라지튀김", 
        "name": "금평식당", 
        "tel": "042-582-2120"
    }, 
    {
        "addr1": "충청남도 청양군 대치면 사수터길 115-8", 
        "addr2": "대한민국 충청남도 청양군 대치면 작천리 63", 
        "lat": 36.393648, 
        "lng": 126.858791, 
        "menu": "참게탕, 쏘가리매운탕", 
        "name": "까치내흥부가든", 
        "tel": "041-943-1640"
    }, 
    {
        "addr1": "충청남도 청양군 남양면 구용길 312  ", 
        "addr2": "대한민국 충청남도 청양군 남양면 대봉리 69-1", 
        "lat": 36.400038, 
        "lng": 126.778016, 
        "menu": "오리백숙", 
        "name": "남양식당", 
        "tel": "041-942-1500"
    }, 
    {
        "addr1": "충청남도 청양군 청양읍 중앙로 76  ", 
        "addr2": "대한민국 충청남도 청양군 청양읍 읍내리 375", 
        "lat": 36.446279, 
        "lng": 126.801851, 
        "menu": "부대찌개, 뼈다귀감자전골", 
        "name": "돌순네부대찌개", 
        "tel": "041-943-8033"
    }, 
    {
        "addr1": "대전광역시 서구 문예로 15(탄방동)", 
        "addr2": "대한민국 대전광역시 서구 탄방동 732", 
        "lat": 36.348051, 
        "lng": 127.389852, 
        "menu": "사천탕면, 짬뽕", 
        "name": "동방명주", 
        "tel": "042-486-3888"
    }, 
    {
        "addr1": "대전광역시 유성구 궁동로14번길 14(궁동)", 
        "addr2": "대한민국 대전광역시 유성구 궁동 414-5", 
        "lat": 36.362299, 
        "lng": 127.348161, 
        "menu": "돼지고기짬뽕", 
        "name": "동해원", 
        "tel": "042-823-3495"
    }, 
    {
        "addr1": "충청남도 보령시 해안로 417(남곡동)", 
        "addr2": "대한민국 충청남도 보령시 남곡동 857-3", 
        "lat": 36.344177, 
        "lng": 126.549315, 
        "menu": "간재미탕·무침, 도다리", 
        "name": "바닷가횟집", 
        "tel": "041-931-0983"
    }, 
    {
        "addr1": "충청남도 청양군 대치면 한티고개길 1", 
        "addr2": "대한민국 충청남도 청양군 대치면 대치리 79-1", 
        "lat": 36.43506, 
        "lng": 126.880816, 
        "menu": "구기자청국장, 바닷물손두부", 
        "name": "바닷물손두부", 
        "tel": "041-943-6617"
    }, 
    {
        "addr1": "충청남도 청양군 청양읍 충절로 1494", 
        "addr2": "대한민국 충청남도 청양군 청양읍 학당리 473-4", 
        "lat": 36.477914, 
        "lng": 126.794045, 
        "menu": "구기자갈비전골", 
        "name": "별장가든", 
        "tel": "041-942-3312"
    }, 
    {
        "addr1": "대전광역시 유성구 관용로63번길 47(관평동)", 
        "addr2": "대한민국 대전광역시 유성구 관평동 554", 
        "lat": 36.416015, 
        "lng": 127.384073, 
        "menu": "묵무침, 묵사발", 
        "name": "산골묵집", 
        "tel": "042-935-9900"
    }, 
    {
        "addr1": "대전광역시 동구 대청호수로428번길 99(주산동)", 
        "addr2": "대한민국 대전광역시 동구 주산동 170", 
        "lat": 36.365301, 
        "lng": 127.481788, 
        "menu": "장어, 붕어찜, 매운탕", 
        "name": "샘골농장", 
        "tel": "042-274-8537"
    }, 
    {
        "addr1": "대전광역시 서구 계룡로509번길 45(탄방동)", 
        "addr2": "대한민국 대전광역시 서구 탄방동 620", 
        "lat": 36.345801, 
        "lng": 127.382798, 
        "menu": "족발, 보쌈", 
        "name": "소담애", 
        "tel": "042-471-3400"
    }, 
    {
        "addr1": "충청남도 청양군 청양읍 칠갑산로1길 62", 
        "addr2": "대한민국 충청남도 청양군 청양읍 읍내리 233-2", 
        "lat": 36.455322, 
        "lng": 126.803402, 
        "menu": "매운갈비찜", 
        "name": "소담정", 
        "tel": "041-943-8812"
    }, 
    {
        "addr1": "대전광역시 유성구 현충원로 173(갑동)", 
        "addr2": "대한민국 대전광역시 유성구 갑동 395-5", 
        "lat": 36.360813, 
        "lng": 127.290555, 
        "menu": "냉면, 백숙", 
        "name": "숯골원냉면", 
        "tel": "042-822-9285"
    }, 
    {
        "addr1": "대전광역시 유성구 진잠로106번길 66", 
        "addr2": "대한민국 대전광역시 유성구 원내동 327-14", 
        "lat": 36.301113, 
        "lng": 127.319019, 
        "menu": "영양탕, 삼계탕", 
        "name": "신대산식당", 
        "tel": "042-543-2829"
    }, 
    {
        "addr1": "대전광역시 중구 대전천서로 679-1(중촌동)", 
        "addr2": "대한민국 대전광역시 중구 중촌동", 
        "lat": 36.342953, 
        "lng": 127.411731, 
        "menu": "칼국수", 
        "name": "신도칼국수", 
        "tel": "042-272-6799"
    }, 
    {
        "addr1": "대전광역시 유성구 성북로 74(방동)", 
        "addr2": "대한민국 대전광역시 유성구 방동 151-1", 
        "lat": 36.288837, 
        "lng": 127.305591, 
        "menu": "메기탕, 새우탕", 
        "name": "신선매운탕", 
        "tel": "042-545-0535"
    }, 
    {
        "addr1": "충청남도 청양군 비봉면 충절로 1991", 
        "addr2": "대한민국 충청남도 청양군 비봉면 록평리 64-1", 
        "lat": 36.5192, 
        "lng": 126.785628, 
        "menu": "아욱된장국, 청국장, 복탕", 
        "name": "양명식당", 
        "tel": "041-943-6881"
    }, 
    {
        "addr1": "대전광역시 유성구 대덕대로 1024(관평동)", 
        "addr2": "대한민국 대전광역시 유성구 관평동 579", 
        "lat": 36.419403, 
        "lng": 127.380304, 
        "menu": "도토리묵밥", 
        "name": "옛정", 
        "tel": "042-671-5553"
    }, 
    {
        "addr1": "대전광역시 서구 남선로23번길 19(탄방동)", 
        "addr2": "대한민국 대전광역시 서구 탄방동 1045", 
        "lat": 36.345968, 
        "lng": 127.395546, 
        "menu": "한우", 
        "name": "오류옥천가", 
        "tel": "042-486-7313"
    }, 
    {
        "addr1": "충청남도 청양군 운곡면 청신로 678", 
        "addr2": "대한민국 충청남도 청양군 운곡면 후덕리 103-4", 
        "lat": 36.507276, 
        "lng": 126.836989, 
        "menu": "우렁쌈밥, 우렁무침", 
        "name": "우렁각시쌈밥", 
        "tel": "041-943-1008"
    }, 
    {
        "addr1": "대전광역시 중구 수침로 94", 
        "addr2": "대한민국 대전광역시 중구 태평1동 257-18", 
        "lat": 36.327804, 
        "lng": 127.399519, 
        "menu": "숯불풍천장어, 닭발", 
        "name": "우리숯불꼼장어닭발", 
        "tel": "042-534-3385"
    }, 
    {
        "addr1": "대전광역시 동구 옥천로 419(비룡동)", 
        "addr2": "대한민국 대전광역시 동구 옥천로 419", 
        "lat": 36.331896, 
        "lng": 127.475432, 
        "menu": "냉면, 비빔냉면", 
        "name": "원미면옥", 
        "tel": "042-286-7883"
    }, 
    {
        "addr1": "충청남도 청양군 청양읍 칠갑산로5길 9-1", 
        "addr2": "대한민국 충청남도 청양군 청양읍 읍내리 203-56", 
        "lat": 36.451593, 
        "lng": 126.803924, 
        "menu": "매운탕, 미꾸라지튀김", 
        "name": "유연숙매운탕", 
        "tel": "041-942-5852"
    }, 
    {
        "addr1": "충청남도 청양군 청양읍 청신로 851-1", 
        "addr2": "대한민국 충청남도 공주시 신풍면 산정리 851-1", 
        "lat": 36.521578, 
        "lng": 126.936169, 
        "menu": "곱창구이, 갈매기살", 
        "name": "자매곱창", 
        "tel": "041-943-2879"
    }, 
    {
        "addr1": "대전광역시 유성구 노은서로 61(노은동)", 
        "addr2": "대한민국 대전광역시 유성구 노은동 564-5", 
        "lat": 36.36602, 
        "lng": 127.312581, 
        "menu": "칼국수, 족발", 
        "name": "토종칼국수", 
        "tel": "042-822-1118"
    }, 
    {
        "addr1": "충청남도 청양군 청양읍 중앙로열길 18", 
        "addr2": "대한민국 충청남도 청양군 청양읍 읍내리 152-1", 
        "lat": 36.451679, 
        "lng": 126.805154, 
        "menu": "뚝배기어죽, 빠가매운탕", 
        "name": "한가네어죽", 
        "tel": "041-943-4578"
    }, 
    {
        "addr1": "대전광역시 유성구 진잠로70번길 41(원내동)", 
        "addr2": "대한민국 대전광역시 유성구 원내동 334-17", 
        "lat": 36.298458, 
        "lng": 127.318499, 
        "menu": "김치비빔면, 평양냉면", 
        "name": "한마음냉면", 
        "tel": "042-543-9384"
    }, 
    {
        "addr1": "대전광역시 서구 남선로 31-24(탄방동)", 
        "addr2": "대한민국 대전광역시 서구 탄방동 1101", 
        "lat": 36.346857, 
        "lng": 127.395991, 
        "menu": "생태찌개", 
        "name": "향토회관", 
        "tel": "042-486-5256"
    }, 
    {
        "addr1": "전라북도 전주시 덕진구 추천로 171(팔복동2가)", 
        "addr2": "대한민국 전라북도 전주시 덕진구 팔복동2가 7-3", 
        "lat": 35.851439, 
        "lng": 127.11092, 
        "menu": "양념족발", 
        "name": "가운데집", 
        "tel": "063-211-5366"
    }, 
    {
        "addr1": "전라북도 전주시 완산구 전라감영5길 17(중앙동3가)", 
        "addr2": "대한민국 전라북도 전주시 완산구 중앙동3가 80", 
        "lat": 35.817137, 
        "lng": 127.145982, 
        "menu": "전주비빔밥, 정식", 
        "name": "가족회관", 
        "tel": "063-284-2884"
    }, 
    {
        "addr1": "전라북도 전주시 덕진구 권삼득로 247(금암동)", 
        "addr2": "대한민국 전라북도 전주시 덕진구 금암1동 728-215", 
        "lat": 35.839386, 
        "lng": 127.132807, 
        "menu": "약선밥상", 
        "name": "감로헌", 
        "tel": "063-275-8811"
    }, 
    {
        "addr1": "전라북도 전주시 덕진구 동가재미3길 50(인후동1가)", 
        "addr2": "대한민국 전라북도 전주시 덕진구 인후동1가 850-1", 
        "lat": 35.834748, 
        "lng": 127.165804, 
        "menu": "메밀국수", 
        "name": "겐돈소바", 
        "tel": "063-246-2585"
    }, 
    {
        "addr1": "전라북도 전주시 덕진구 조경단로 100", 
        "addr2": "대한민국 전라북도 전주시 덕진구 금암2동 1589-5", 
        "lat": 35.843246, 
        "lng": 127.139029, 
        "menu": "아귀탕, 아귀찜", 
        "name": "군산아구탕", 
        "tel": "063-251-3439"
    }, 
    {
        "addr1": "전라북도 무주군 무주읍 단천로 102  ", 
        "addr2": "대한민국 전라북도 무주군 무주읍 읍내리 246-7", 
        "lat": 36.007541, 
        "lng": 127.662197, 
        "menu": "어죽, 쏘가리탕", 
        "name": "금강식당", 
        "tel": "063-322-0979"
    }, 
    {
        "addr1": "전라북도 전주시 완산구 풍남문2길 98-1(전동3가)", 
        "addr2": "대한민국 전라북도 전주시 완산구 전동3가 56-1", 
        "lat": 35.813754, 
        "lng": 127.144252, 
        "menu": "물짜장", 
        "name": "노벨반점", 
        "tel": "063-284-4318"
    }, 
    {
        "addr1": "전라북도 전주시 덕진구 석소5길 5(우아동2가)", 
        "addr2": "대한민국 전라북도 전주시 덕진구 우아동2가 900-3", 
        "lat": 35.832706, 
        "lng": 127.173552, 
        "menu": "정식, 한우불낙전골", 
        "name": "농부가", 
        "tel": "063-247-3006"
    }, 
    {
        "addr1": "전라북도 전주시 완산구 백제대로 402(서신동)", 
        "addr2": "대한민국 전라북도 전주시 완산구 서신동 40-7", 
        "lat": 35.829126, 
        "lng": 127.123322, 
        "menu": "냉면, 평양왕만두", 
        "name": "다래면옥", 
        "tel": "063-255-4291"
    }, 
    {
        "addr1": "전라북도 임실군 임실읍 봉황로 152  ", 
        "addr2": "대한민국 전라북도 임실군 임실읍 이도리 693-6", 
        "lat": 35.613934, 
        "lng": 127.279723, 
        "menu": "짬뽕, 우동", 
        "name": "대만원", 
        "tel": "063-642-3045"
    }, 
    {
        "addr1": "전라북도 전주시 완산구 장자길 67(삼천동2가)", 
        "addr2": "대한민국 전라북도 전주시 완산구 삼천동2가 390-1", 
        "lat": 35.776839, 
        "lng": 127.102264, 
        "menu": "청국장, 제육볶음", 
        "name": "덕암식당", 
        "tel": "063-226-9435"
    }, 
    {
        "addr1": "전라북도 전주시 완산구 은행로 10(풍남동1가)", 
        "addr2": "대한민국 전라북도 전주시 완산구 풍남동1가 33-3", 
        "lat": 35.819083, 
        "lng": 127.151611, 
        "menu": "만두", 
        "name": "동포만두", 
        "tel": "063-231-9231"
    }, 
    {
        "addr1": "전라북도 전주시 완산구 안터2길 39-3(서신동)", 
        "addr2": "대한민국 전라북도 전주시 완산구 서신동 835-13", 
        "lat": 35.827942, 
        "lng": 127.116309, 
        "menu": "막걸리", 
        "name": "막걸리일번지", 
        "tel": "063-254-7800"
    }, 
    {
        "addr1": "전라북도 전주시 완산구 문화광장로 29(서노송동)", 
        "addr2": "대한민국 전라북도 전주시 완산구 서노송동 616-16", 
        "lat": 35.823277, 
        "lng": 127.146667, 
        "menu": "돼지불고기", 
        "name": "명랑불고기", 
        "tel": "063-283-3973"
    }, 
    {
        "addr1": "전라북도 전주시 완산구 천잠로 261", 
        "addr2": "대한민국 전라북도 전주시 완산구 효자동3가", 
        "lat": 35.810254, 
        "lng": 127.09377, 
        "menu": "조개모둠칼국수", 
        "name": "바지락명가장가네", 
        "tel": "063-237-2546"
    }, 
    {
        "addr1": "전라북도 무주군 무주읍 장터로2", 
        "addr2": "대한민국 전라북도 무주군 무주읍 읍내리 1152", 
        "lat": 36.004591, 
        "lng": 127.654048, 
        "menu": "어탕국수, 도리뱅뱅이", 
        "name": "반디어촌", 
        "tel": "063-322-1141"
    }, 
    {
        "addr1": "전라북도 전주시 완산구 홍산1길 6(효자동2가)", 
        "addr2": "대한민국 전라북도 전주시 완산구 효자동2가 1156-6", 
        "lat": 35.81486, 
        "lng": 127.108366, 
        "menu": "반야돌솥밥", 
        "name": "반야돌솥밥", 
        "tel": "063-288-3174"
    }, 
    {
        "addr1": "전라북도 전주시 완산구 현무2길 67(경원동3가)", 
        "addr2": "대한민국 전라북도 전주시 완산구 경원동3가 199", 
        "lat": 35.822444, 
        "lng": 127.14925, 
        "menu": "찐빵, 만두", 
        "name": "백일홍찐빵만두", 
        "tel": "063-286-3697"
    }, 
    {
        "addr1": "전라북도 전주시 완산구 경기전길 135(교동)", 
        "addr2": "대한민국 전라북도 전주시 완산구 교동 84-10", 
        "lat": 35.813415, 
        "lng": 127.151566, 
        "menu": "칼국수, 만두, 쫄면", 
        "name": "베테랑분식", 
        "tel": "063-285-9898"
    }, 
    {
        "addr1": "전라북도 전주시 덕진구 백제대로 524", 
        "addr2": "대한민국 전라북도 전주시 덕진구 금암1동 790-5", 
        "lat": 35.838219, 
        "lng": 127.128058, 
        "menu": "갈비, 냉면, 생고기", 
        "name": "벽계가든", 
        "tel": "063-273-1833"
    }, 
    {
        "addr1": "전라북도 전주시 덕진구 백제대로 576(금암동)", 
        "addr2": "대한민국 전라북도 전주시 덕진구 금암1동 728-235", 
        "lat": 35.840358, 
        "lng": 127.132724, 
        "menu": "설렁탕, 곰탕", 
        "name": "봉이설렁탕", 
        "tel": "063-271-0912"
    }, 
    {
        "addr1": "전라북도 전주시 완산구 중산10길 16-4(중화산동2가)", 
        "addr2": "대한민국 전라북도 전주시 완산구 중화산동2가 599-1", 
        "lat": 35.818454, 
        "lng": 127.121758, 
        "menu": "막걸리", 
        "name": "사람사는세상", 
        "tel": "063-282-8735"
    }, 
    {
        "addr1": "전라북도 무주군 무주읍 내도로 126  ", 
        "addr2": "대한민국 전라북도 무주군 무주읍 읍내리 1357-1", 
        "lat": 36.016707, 
        "lng": 127.645031, 
        "menu": "어죽, 빠가탕", 
        "name": "섬마을", 
        "tel": "063-322-2799"
    }, 
    {
        "addr1": "전라북도 전주시 완산구 팔달로 218-9(서노송동)", 
        "addr2": "대한민국 전라북도 전주시 완산구 서노송동 635-1", 
        "lat": 35.82361, 
        "lng": 127.14595, 
        "menu": "짜장면, 잡탕밥, 물짜장", 
        "name": "수정관", 
        "tel": "063-287-7268"
    }, 
    {
        "addr1": "전라북도 전주시 완산구 백제대로 128(효자동1가)", 
        "addr2": "대한민국 전라북도 전주시 효자1가 223-10", 
        "lat": 35.804455, 
        "lng": 127.1242, 
        "menu": "쇠고기구이, 갈비탕", 
        "name": "연와미당", 
        "tel": "063-224-2393"
    }, 
    {
        "addr1": "전라북도 전주시 완산구 현무1길 15(경원동3가)", 
        "addr2": "대한민국 전라북도 전주시 완산구 경원동3가 17-16", 
        "lat": 35.820138, 
        "lng": 127.147695, 
        "menu": "설렁탕, 갈비탕", 
        "name": "연지회관", 
        "tel": "063-286-4988"
    }, 
    {
        "addr1": "전라북도 전주시 완산구 은행로 69(교동)", 
        "addr2": "대한민국 전라북도 전주시 완산구 교동 63-13", 
        "lat": 35.813834, 
        "lng": 127.152917, 
        "menu": "갈비탕, 매생이갈비탕", 
        "name": "오목대사랑채", 
        "tel": "063-232-8533"
    }, 
    {
        "addr1": "전라북도 전주시 덕진구 정언신로 84(인후동1가)", 
        "addr2": "대한민국 전라북도 전주시 덕진구 인후동1가 868-2", 
        "lat": 35.830693, 
        "lng": 127.162971, 
        "menu": "바지락칼국수", 
        "name": "오목돌바지락손칼국수", 
        "tel": "063-243-6373"
    }, 
    {
        "addr1": "전라북도 고창군 성내면 운산길 15-1  ", 
        "addr2": "대한민국 전라북도 고창군 성내면 양계리 509", 
        "lat": 35.53742, 
        "lng": 126.745836, 
        "menu": "냉면, 갈비탕", 
        "name": "오복식당", 
        "tel": "063-563-3335"
    }, 
    {
        "addr1": "전라북도 전주시 완산구 공북로 92-1(태평동)", 
        "addr2": "대한민국 전라북도 전주시 완산구 태평동 8-37", 
        "lat": 35.826221, 
        "lng": 127.142029, 
        "menu": "가락국수, 양념족발", 
        "name": "오원집", 
        "tel": "063-275-1123"
    }, 
    {
        "addr1": "전라북도 전주시 완산구 동문길 88(경원동2가)", 
        "addr2": "대한민국 전라북도 전주시 완산구 경원동2가 12-1", 
        "lat": 35.818333, 
        "lng": 127.149223, 
        "menu": "콩나물국밥, 모주", 
        "name": "왱이집", 
        "tel": "063-287-6980"
    }, 
    {
        "addr1": "전라북도 전주시 완산구 은행로 87(교동)", 
        "addr2": "대한민국 전라북도 전주시 완산구 교동 113-4", 
        "lat": 35.812111, 
        "lng": 127.153111, 
        "menu": "흑임자팥빙수", 
        "name": "외할머니솜씨", 
        "tel": "063-232-5804"
    }, 
    {
        "addr1": "전라북도 완주군 소양면 전진로 1066", 
        "addr2": "대한민국 전라북도 완주군 소양면 화심리 518-2", 
        "lat": 35.842888, 
        "lng": 127.271044, 
        "menu": "화심손두부, 두부도넛", 
        "name": "원조화심두부", 
        "tel": "063-243-8952"
    }, 
    {
        "addr1": "전라북도 전주시 완산구 동문길 103(경원동1가)", 
        "addr2": "대한민국 전라북도 전주시 완산구 경원동1가 113-5", 
        "lat": 35.817673, 
        "lng": 127.148528, 
        "menu": "냉면, 평양만두", 
        "name": "이래면옥", 
        "tel": "063-288-6644"
    }, 
    {
        "addr1": "전라북도 전주시 완산구 현무2길 16(경원동3가)", 
        "addr2": "대한민국 전라북도 전주시 완산구 경원동3가 13-12", 
        "lat": 35.820194, 
        "lng": 127.149973, 
        "menu": "가게맥주, 갑오징어", 
        "name": "전일슈퍼", 
        "tel": "063-284-0793"
    }, 
    {
        "addr1": "전라북도 전주시 덕진구 송천중앙로 25(덕진동2가)", 
        "addr2": "대한민국 전라북도 전주시 덕진구 덕진동2가 168-75", 
        "lat": 35.849421, 
        "lng": 127.119166, 
        "menu": "설렁탕, 곰탕", 
        "name": "족보설렁탕", 
        "tel": "063-277-0004"
    }, 
    {
        "addr1": "전라북도 전주시 완산구 경기전길 75", 
        "addr2": "대한민국 전라북도 전주시 완산구 풍남동3가 80-1", 
        "lat": 35.816053, 
        "lng": 127.150851, 
        "menu": "쇠고기, 안창살", 
        "name": "중앙숯불", 
        "tel": "063-231-1771"
    }, 
    {
        "addr1": "전라북도 김제시 금산면 모악로 17", 
        "addr2": "대한민국 전라북도 김제시 금산면 원평리 1-1", 
        "lat": 35.715676, 
        "lng": 126.995851, 
        "menu": "육회비빔밥, 꽃등심", 
        "name": "지평선청보리한우촌", 
        "tel": "063-543-0076"
    }, 
    {
        "addr1": "전라북도 전주시 덕진구 명주3길 19-2(인후동2가)", 
        "addr2": "대한민국 전라북도 전주시 덕진구 인후동2가 1551-2", 
        "lat": 35.84333, 
        "lng": 127.148389, 
        "menu": "된장짜장, 된장짬뽕", 
        "name": "진미반점", 
        "tel": "063-246-9295"
    }, 
    {
        "addr1": "전라북도 전주시 완산구 전주천동로 94(전동)", 
        "addr2": "대한민국 전라북도 전주시 완산구 전동 237", 
        "lat": 35.811171, 
        "lng": 127.15043, 
        "menu": "메밀국수, 콩국수", 
        "name": "진미집", 
        "tel": "063-288-4020"
    }, 
    {
        "addr1": "전라북도 전주시 덕진구 정언신로 173-1", 
        "addr2": "대한민국 전라북도 전주시 덕진구 송천동2가", 
        "lat": 35.867955, 
        "lng": 127.123477, 
        "menu": "돼지불고기", 
        "name": "진안흑돼지연탄생구이", 
        "tel": "063-244-5565"
    }, 
    {
        "addr1": "전라북도 무주군 무주읍 대차로 64", 
        "addr2": "대한민국 전라북도 무주군 무주읍 대차리 80-1", 
        "lat": 36.004457, 
        "lng": 127.640697, 
        "menu": "다슬기, 어죽", 
        "name": "차산식당", 
        "tel": "063-322-1788"
    }, 
    {
        "addr1": "전라북도 무주군 무주읍 무주로 1739", 
        "addr2": "대한민국 전라북도 무주군 무주읍 가옥리 300", 
        "lat": 35.97424, 
        "lng": 127.650949, 
        "menu": "삼선짬뽕, 머루탕수육", 
        "name": "천마루", 
        "tel": "063-322-0433"
    }, 
    {
        "addr1": "전라북도 고창군 신림면 왕림로 104-12", 
        "addr2": "대한민국 전라북도 고창군 부안면 수동리", 
        "lat": 35.534765, 
        "lng": 126.658153, 
        "menu": "보리밥정식, 붕어찜", 
        "name": "청보리골", 
        "tel": "063-564-5200"
    }, 
    {
        "addr1": "전라북도 전주시 완산구 공북로 69(태평동)", 
        "addr2": "대한민국 전라북도 전주시 완산구 태평동 13-12", 
        "lat": 35.82607, 
        "lng": 127.139367, 
        "menu": "고추장연탄구이불고기", 
        "name": "태평진미집", 
        "tel": "063-277-6543"
    }, 
    {
        "addr1": "전라북도 전주시 완산구 공북로 100(서노송동)", 
        "addr2": "대한민국 전라북도 전주시 완산구 서노송동 655-3", 
        "lat": 35.826304, 
        "lng": 127.142834, 
        "menu": "닭내장탕, 돼지갈비", 
        "name": "펄펄닭내장", 
        "tel": "063-277-3257"
    }, 
    {
        "addr1": "전라북도 전주시 덕진구 명륜5길 5(덕진동1가)", 
        "addr2": "대한민국 전라북도 전주시 덕진구 덕진동1가 1276-14", 
        "lat": 35.843385, 
        "lng": 127.125197, 
        "menu": "뚝배기감자탕, 감자탕전골", 
        "name": "해이루", 
        "tel": "063-272-1829"
    }, 
    {
        "addr1": "전라북도 전주시 완산구 전동성당길 13(경원동2가)", 
        "addr2": "대한민국 전라북도 전주시 완산구 경원동2가 7-6", 
        "lat": 35.818352, 
        "lng": 127.148796, 
        "menu": "닭바비큐", 
        "name": "해태바베큐", 
        "tel": "063-282-9509"
    }, 
    {
        "addr1": "전라북도 전주시 완산구 화산천변2길 5(중화산동2가)", 
        "addr2": "대한민국 전라북도 전주시 완산구 중화산동2가 759-7", 
        "lat": 35.819499, 
        "lng": 127.116499, 
        "menu": "콩나물국밥, 돼지국밥", 
        "name": "현대옥", 
        "tel": "063-228-0020"
    }, 
    {
        "addr1": "전라북도 완주군 상관면 상관소양로 21-98", 
        "addr2": "대한민국 전라북도 완주군 상관면 신리 573-1", 
        "lat": 35.772145, 
        "lng": 127.208857, 
        "menu": "다슬기돌솥밥", 
        "name": "호림이네", 
        "tel": "063-285-4007"
    }, 
    {
        "addr1": "전라북도 전주시 완산구 전주객사4길 43-24(고사동)", 
        "addr2": "대한민국 전라북도 전주시 완산구 고사동 378-5", 
        "lat": 35.819583, 
        "lng": 127.142946, 
        "menu": "갈비탕, 우족탕", 
        "name": "효자문식당", 
        "tel": "063-284-4236"
    }, 
    {
        "addr1": "전라북도 전주시 완산구 팔달로 180(경원동1가)", 
        "addr2": "대한민국 전라북도 전주시 완산구 경원동1가 40-5", 
        "lat": 35.818388, 
        "lng": 127.147195, 
        "menu": "수제초코파이", 
        "name": "PNB풍년제과", 
        "tel": "063-285-6666"
    }, 
    {
        "addr1": "광주광역시 서구 상무오월로43번길 3-12(쌍촌동)", 
        "addr2": "대한민국 광주광역시 서구 쌍촌동 1363-6", 
        "lat": 35.155879, 
        "lng": 126.863517, 
        "menu": "오리한방백숙", 
        "name": "(오리요리명가)27년", 
        "tel": "062-372-5279"
    }, 
    {
        "addr1": "전라남도 구례군 산동면 당골길 86-31", 
        "addr2": "대한민국 전라남도 구례군 산동면 좌사리 31", 
        "lat": 35.316843, 
        "lng": 127.48612, 
        "menu": "산닭구이, 오리구이", 
        "name": "당골식당", 
        "tel": "061-783-1689"
    }, 
    {
        "addr1": "전라남도 순천시 순천만길 542", 
        "addr2": "대한민국 전라남도 순천시 대대동 572-1", 
        "lat": 34.88945, 
        "lng": 127.509046, 
        "menu": "짱뚱어탕", 
        "name": "대대선창집", 
        "tel": "061-741-3157"
    }, 
    {
        "addr1": "광주광역시 광산구 왕버들로 113-2(수완동)", 
        "addr2": "대한민국 광주광역시 광산구 수완동", 
        "lat": 35.201897, 
        "lng": 126.824033, 
        "menu": "왕돈가스, 피자", 
        "name": "돈까스클럽(광주수완점)", 
        "tel": "062-951-9985"
    }, 
    {
        "addr1": "광주광역시 광산구 평동로 421", 
        "addr2": "대한민국 광주광역시 광산구 명화동 225-4", 
        "lat": 35.122964, 
        "lng": 126.722309, 
        "menu": "애호박찌개, 삼겹살", 
        "name": "명화식육식당", 
        "tel": "062-943-7760"
    }, 
    {
        "addr1": "전라남도 광양시 오류5길 23(중동)", 
        "addr2": "대한민국 전라남도 광양시 중동 1620-4", 
        "lat": 34.937966, 
        "lng": 127.691801, 
        "menu": "메기구이, 메기탕", 
        "name": "미가도", 
        "tel": "061-792-9898"
    }, 
    {
        "addr1": "전라남도 신안군 화도길 339(증도면)", 
        "addr2": "대한민국 전라남도 신안군 증도면 지도증도로 1766-15", 
        "lat": 34.963498, 
        "lng": 126.134447, 
        "menu": "백반, 낙지볶음, 매운탕", 
        "name": "반올림식당", 
        "tel": "061-261-1544"
    }, 
    {
        "addr1": "전라남도 구례군 구례읍 봉동길 8-9", 
        "addr2": "대한민국 전라남도 구례군 구례읍 봉동리 106-8", 
        "lat": 35.208954, 
        "lng": 127.468692, 
        "menu": "돼지머리국밥, 수육", 
        "name": "봉성식당", 
        "tel": "061-782-7262"
    }, 
    {
        "addr1": "전라남도 광양시 중마중앙로 211(중동)", 
        "addr2": "대한민국 전라남도 광양시 중동", 
        "lat": 34.949234, 
        "lng": 127.697841, 
        "menu": "매화정식", 
        "name": "사임당", 
        "tel": "061-791-5134"
    }, 
    {
        "addr1": "전라남도 광양시 다압면 원동길 70-21  ", 
        "addr2": "대한민국 전라남도 광양시 다압면 신원리", 
        "lat": 35.061618, 
        "lng": 127.736594, 
        "menu": "재첩국, 재첩모둠정식", 
        "name": "섬진강고향집(재첩국)", 
        "tel": "061-772-0305"
    }, 
    {
        "addr1": "전라남도 광양시 진월면 섬진강매화로 119  ", 
        "addr2": "대한민국 전라남도 광양시 진월면 신아리 1192-15", 
        "lat": 34.98338, 
        "lng": 127.768463, 
        "menu": "주꾸미, 전어회", 
        "name": "성호쉼터횟집", 
        "tel": "061-772-2670"
    }, 
    {
        "addr1": "광주광역시 광산구 광산로29번길 1(송정2동)", 
        "addr2": "대한민국 광주광역시 광산구 송정동 826-3", 
        "lat": 35.138974, 
        "lng": 126.794795, 
        "menu": "떡갈비, 육회비빔밥", 
        "name": "송정떡갈비", 
        "tel": "062-944-1439"
    }, 
    {
        "addr1": "전라남도 담양군 남면 남대덕로 53  ", 
        "addr2": "대한민국 전라남도 담양군 남면 가암리 362-3", 
        "lat": 35.162826, 
        "lng": 127.057998, 
        "menu": "들나물솔밥정식", 
        "name": "숲속의무릉도원", 
        "tel": "061-381-3178"
    }, 
    {
        "addr1": "전라남도 구례군 간전면 남도대교로 78", 
        "addr2": "대한민국 전라남도 구례군 간전면 운천리 286", 
        "lat": 35.187972, 
        "lng": 127.619667, 
        "menu": "장어구이, 은어튀김", 
        "name": "쉴만한물가", 
        "tel": "061-782-7628"
    }, 
    {
        "addr1": "전라남도 순천시 하대석길 33(연향동)", 
        "addr2": "대한민국 전라남도 순천시 연향동 1496-2", 
        "lat": 34.945281, 
        "lng": 127.524668, 
        "menu": "아귀탕(찜), 해물탕", 
        "name": "아구마을", 
        "tel": "061-722-5060"
    }, 
    {
        "addr1": "광주광역시 서구 마륵복개로 147(치평동)", 
        "addr2": "대한민국 광주광역시 서구 치평동 241-3", 
        "lat": 35.147741, 
        "lng": 126.853129, 
        "menu": "육전", 
        "name": "연화", 
        "tel": "062-384-1142"
    }, 
    {
        "addr1": "전라남도 광양시 봉강면 성불로 71-8", 
        "addr2": "대한민국 전라남도 광양시 봉강면 지곡리 266", 
        "lat": 34.994883, 
        "lng": 127.58923, 
        "menu": "토종닭숯불구이", 
        "name": "지곡산장", 
        "tel": "061-761-3335"
    }, 
    {
        "addr1": "광주광역시 광산구 임방울대로332번길 9-12(수완동)", 
        "addr2": "대한민국 광주광역시 광산구 수완동", 
        "lat": 35.19, 
        "lng": 126.82521, 
        "menu": "매운돼지(소)갈비찜", 
        "name": "짚신매운갈비찜(광주수완점)", 
        "tel": "062-955-9596"
    }, 
    {
        "addr1": "전라남도 광양시 옥곡면 큰골1길 8-4  ", 
        "addr2": "대한민국 전라남도 광양시 진상면 청암리 728-2", 
        "lat": 35.015022, 
        "lng": 127.725883, 
        "menu": "보리밥", 
        "name": "텃밭", 
        "tel": "061-772-0411"
    }, 
    {
        "addr1": "전라남도 광양시 옥룡면 신재로 1317  ", 
        "addr2": "대한민국 전라남도 광양시 옥룡면 동곡리 482-21", 
        "lat": 35.069851, 
        "lng": 127.615114, 
        "menu": "닭숯불구이, 흑염소", 
        "name": "푸른산장", 
        "tel": "061-762-0033"
    }, 
    {
        "addr1": "전라남도 목포시 장미로 95(옥암동)", 
        "addr2": "대한민국 전라남도 목포시 옥암동", 
        "lat": 34.804928, 
        "lng": 126.43067, 
        "menu": "전복, 낙지탕탕이", 
        "name": "하당먹거리", 
        "tel": "061-283-1738"
    }, 
    {
        "addr1": "전라남도 나주시 금성관길 6-1(중앙동)", 
        "addr2": "대한민국 전라남도 나주시 중앙동 48-17", 
        "lat": 35.032169, 
        "lng": 126.71695, 
        "menu": "곰탕, 수육", 
        "name": "하얀집", 
        "tel": "061-333-4292"
    }, 
    {
        "addr1": "광주광역시 광산구 풍영로229번길 53(장덕동)", 
        "addr2": "대한민국 광주광역시 광산구 장덕동 1421", 
        "lat": 35.192013, 
        "lng": 126.810993, 
        "menu": "전복구이, 전복삼계탕", 
        "name": "해궁", 
        "tel": "062-955-5562"
    }, 
    {
        "addr1": "광주광역시 광산구 왕버들로 113-2(수완동)", 
        "addr2": "대한민국 광주광역시 광산구 수완동", 
        "lat": 35.201897, 
        "lng": 126.824033, 
        "menu": "임금님수라상정식", 
        "name": "행복한임금님(수완점)", 
        "tel": "062-267-9292"
    }, 
    {
        "addr1": "대구광역시 북구 침산로 21길 23(칠성동2가)", 
        "addr2": "대한민국 대구광역시 북구 칠성동2가", 
        "lat": 35.885673, 
        "lng": 128.587758, 
        "menu": "닭갈비", 
        "name": "남천닭갈비(침산점)", 
        "tel": "053-352-0444"
    }, 
    {
        "addr1": "대구광역시 남구 앞산순환로 443(대명9동)", 
        "addr2": "대한민국 대구광역시 남구 대명9동 552-7", 
        "lat": 35.831135, 
        "lng": 128.573671, 
        "menu": "선지국밥", 
        "name": "대덕식당", 
        "tel": "053-623-0613"
    }, 
    {
        "addr1": "대구광역시 남구 대봉로 57-1(봉덕동)", 
        "addr2": "대한민국 대구광역시 남구 봉덕2동 948-13", 
        "lat": 35.843884, 
        "lng": 128.603862, 
        "menu": "냉면, 불고기, 어복쟁반", 
        "name": "대동강", 
        "tel": "053-471-3379"
    }, 
    {
        "addr1": "대구광역시 남구 양지북길 100(대명3동)", 
        "addr2": "대한민국 대구광역시 남구 대명3동 2143-10", 
        "lat": 35.851878, 
        "lng": 128.579168, 
        "menu": "찜닭, 치킨", 
        "name": "또이스치킨찜닭", 
        "tel": "053-626-1584"
    }, 
    {
        "addr1": "대구광역시 동구 아양로7길 12(신암1동)", 
        "addr2": "대한민국 대구광역시 동구 신암1동 766", 
        "lat": 35.882907, 
        "lng": 128.618915, 
        "menu": "양념똥집, 찜닭", 
        "name": "만남의광장", 
        "tel": "053-942-3450"
    }, 
    {
        "addr1": "대구광역시 북구 침산남로 62", 
        "addr2": "대한민국 대구광역시 북구 노원동1가 8-1", 
        "lat": 35.88935, 
        "lng": 128.582668, 
        "menu": "물회, 모둠회", 
        "name": "벽강물회", 
        "tel": "053-356-1900"
    }, 
    {
        "addr1": "대구광역시 동구 팔공산로 1666(백안동)", 
        "addr2": "대한민국 대구광역시 동구 백안동 573", 
        "lat": 35.956538, 
        "lng": 128.692045, 
        "menu": "순두부송이찌개", 
        "name": "산골기사식당", 
        "tel": "053-983-0362"
    }, 
    {
        "addr1": "대구광역시 남구 봉덕로 102(봉덕2동)", 
        "addr2": "대한민국 대구광역시 남구 봉덕2동 536-19", 
        "lat": 35.844333, 
        "lng": 128.601703, 
        "menu": "오리요리", 
        "name": "생오리오리", 
        "tel": "053-382-5252"
    }, 
    {
        "addr1": "대구광역시 북구 칠곡중앙대로 606-1", 
        "addr2": "대한민국 대구광역시 북구 읍내동", 
        "lat": 35.938472, 
        "lng": 128.55059, 
        "menu": "순대국밥, 수육", 
        "name": "소문난부자돼지국밥", 
        "tel": "053-321-6945"
    }, 
    {
        "addr1": "대구광역시 서구 달구벌대로 1789", 
        "addr2": "대한민국 대구광역시 서구 내당1동 219-20", 
        "lat": 35.859187, 
        "lng": 128.560449, 
        "menu": "낙지요리", 
        "name": "손복자부산할매낙지", 
        "tel": "053-554-9475"
    }, 
    {
        "addr1": "대구광역시 남구 앞산순환로87길 13(대명동)", 
        "addr2": "대한민국 대구광역시 달서구 송현1동 1976-28", 
        "lat": 35.825624, 
        "lng": 128.55508, 
        "menu": "손칼국수, 빈대떡", 
        "name": "앞산할매손칼국수", 
        "tel": "053-624-3386"
    }, 
    {
        "addr1": "대구광역시 중구 종로 39", 
        "addr2": "대한민국 대구광역시 중구 종로2가 20", 
        "lat": 35.867381, 
        "lng": 128.59239, 
        "menu": "군만두, 탕수육", 
        "name": "영생덕", 
        "tel": "053-255-5777"
    }, 
    {
        "addr1": "대구광역시 남구 봉덕로 11(봉덕1동)", 
        "addr2": "대한민국 대구광역시 남구 봉덕1동 982-9", 
        "lat": 35.845517, 
        "lng": 128.592016, 
        "menu": "삼계탕, 찜닭", 
        "name": "주왕산삼계탕", 
        "tel": "053-475-5454"
    }, 
    {
        "addr1": "대구광역시 남구 봉덕로 115(봉덕시장 내 127호)", 
        "addr2": "대한민국 대구광역시 달서구 신당동", 
        "lat": 35.839132, 
        "lng": 128.489734, 
        "menu": "손칼국수, 어탕", 
        "name": "청도손칼국수", 
        "tel": "053-474-5681"
    }, 
    {
        "addr1": "대구광역시 남구 대명남2길 100-8", 
        "addr2": "대한민국 대구광역시 남구 대명5동 133-15", 
        "lat": 35.843323, 
        "lng": 128.59013, 
        "menu": "칼국수, 수제비", 
        "name": "홍두깨", 
        "tel": "053-628-2800"
    }, 
    {
        "addr1": "경상남도 김해시 대동면 동남로1번길 22", 
        "addr2": "대한민국 경상남도 김해시 대동면 초정리 952-506", 
        "lat": 35.232715, 
        "lng": 128.991269, 
        "menu": "메기매운탕, 청둥오리탕", 
        "name": "강변매운탕", 
        "tel": "055-323-0292"
    }, 
    {
        "addr1": "경상남도 통영시 무전5길 11-19(무전동)", 
        "addr2": "대한민국 경상남도 통영시 무전동 1059-3", 
        "lat": 34.860608, 
        "lng": 128.42535, 
        "menu": "초밥, 생선회", 
        "name": "경동초밥", 
        "tel": "055-644-5060"
    }, 
    {
        "addr1": "경상남도 통영시 산양읍 산양일주로 598", 
        "addr2": "대한민국 경상남도 통영시 산양읍 신전리 740-3", 
        "lat": 34.792093, 
        "lng": 128.419534, 
        "menu": "모둠회, 회정식", 
        "name": "놀부횟집", 
        "tel": "055-643-8232"
    }, 
    {
        "addr1": "경상남도 통영시 해송정1길 19(동호동)", 
        "addr2": "대한민국 경상남도 통영시 동호동 174-1", 
        "lat": 34.843388, 
        "lng": 128.427322, 
        "menu": "굴코스요리", 
        "name": "대풍관(생생굴마을)", 
        "tel": "055-644-4446"
    }, 
    {
        "addr1": "경상남도 통영시 항북길 34(정량동)", 
        "addr2": "대한민국 경상남도 통영시 정량동 1161", 
        "lat": 34.84561, 
        "lng": 128.429711, 
        "menu": "멸치요리코스", 
        "name": "멸치마을식당", 
        "tel": "055-645-6729"
    }, 
    {
        "addr1": "경상남도 통영시 무전5길 12-5(무전동)", 
        "addr2": "대한민국 경상남도 통영시 무전동 1065-8", 
        "lat": 34.860803, 
        "lng": 128.426516, 
        "menu": "복국, 복매운탕", 
        "name": "부일복국", 
        "tel": "055-641-0064"
    }, 
    {
        "addr1": "경상남도 함안군 가야읍 중앙남1길 16", 
        "addr2": "대한민국 경상남도 함안군 가야읍 말산리 127-4", 
        "lat": 35.275336, 
        "lng": 128.407368, 
        "menu": "아귀찜, 해물찜", 
        "name": "사랑목아구찜", 
        "tel": "055-584-0857"
    }, 
    {
        "addr1": "경상남도 거창군 거창읍 내학길 35-4", 
        "addr2": "대한민국 경상남도 거창군 거창읍 서변리 4-2", 
        "lat": 35.739106, 
        "lng": 127.924762, 
        "menu": "갈비찜, 갈비탕", 
        "name": "삼산이수", 
        "tel": "055-942-1844"
    }, 
    {
        "addr1": "경상남도 창원시 성산구 마디미로16번길 6(상남동)", 
        "addr2": "대한민국 경상남도 창원시 성산구 상남동 13-6", 
        "lat": 35.223237, 
        "lng": 128.684621, 
        "menu": "월남쌈샤브샤브", 
        "name": "샤브마름(창원점)", 
        "tel": "055-281-3383"
    }, 
    {
        "addr1": "경상남도 통영시 항남5길 19(항남동)", 
        "addr2": "대한민국 경상남도 통영시 항남동 239-16", 
        "lat": 34.84136, 
        "lng": 128.421795, 
        "menu": "멍게비빔밥, 해물뚝배기", 
        "name": "수미식당", 
        "tel": "055-646-6575"
    }, 
    {
        "addr1": "경상남도 함안군 가야읍 중앙남길 25", 
        "addr2": "대한민국 경상남도 함안군 가야읍 말산리 123-1", 
        "lat": 35.27488, 
        "lng": 128.408247, 
        "menu": "국수", 
        "name": "아라밀면", 
        "tel": "055-583-1882"
    }, 
    {
        "addr1": "경상남도 밀양시 중앙로 289-24(삼문동)", 
        "addr2": "대한민국 경상남도 밀양시 삼문동 219-22", 
        "lat": 35.48828, 
        "lng": 128.753743, 
        "menu": "우동", 
        "name": "아줌마우동", 
        "tel": "055-354-7510"
    }, 
    {
        "addr1": "경상남도 통영시 도천상가안길 18(도천동)", 
        "addr2": "대한민국 경상남도 통영시 도천동", 
        "lat": 34.837268, 
        "lng": 128.414271, 
        "menu": "해물탕", 
        "name": "어촌싱싱회해물탕", 
        "tel": "055-646-1982"
    }, 
    {
        "addr1": "경상남도 통영시 도남로 282(도남동)", 
        "addr2": "대한민국 경상남도 통영시 도남동 198-10", 
        "lat": 34.826334, 
        "lng": 128.43235, 
        "menu": "굴정식, 멍게비빔밥", 
        "name": "영빈관", 
        "tel": "055-646-8028"
    }, 
    {
        "addr1": "경상남도 함안군 산인면 성산로 563", 
        "addr2": "대한민국 경상남도 함안군 산인면 신산리 1312-2", 
        "lat": 35.268477, 
        "lng": 128.458641, 
        "menu": "기러기요리", 
        "name": "옥수정", 
        "tel": "055-583-6127"
    }, 
    {
        "addr1": "경상남도 통영시 새터길 12-10(서호동)", 
        "addr2": "대한민국 경상남도 통영시 서호동 177-408", 
        "lat": 34.84075, 
        "lng": 128.41832, 
        "menu": "시락국(시래기국)", 
        "name": "원조시락국", 
        "tel": "055-646-5973"
    }, 
    {
        "addr1": "경상남도 통영시 무전대로 12-9(무전동)", 
        "addr2": "대한민국 경상남도 통영시 무전동 1020-20", 
        "lat": 34.859998, 
        "lng": 128.422064, 
        "menu": "해물뚝배기, 아귀찜", 
        "name": "윤씨네해물뚝배기", 
        "tel": "055-646-8487"
    }, 
    {
        "addr1": "경상남도 통영시 광도면 죽림4로 23-37", 
        "addr2": "대한민국 경상남도 통영시 광도면 죽림리 1570-4", 
        "lat": 34.886105, 
        "lng": 128.41885, 
        "menu": "숯불갈비, 불고기", 
        "name": "은혜숯불갈비", 
        "tel": "055-644-7621"
    }, 
    {
        "addr1": "경상남도 통영시 무전1길 64-15(무전동)", 
        "addr2": "대한민국 경상남도 통영시 무전동 1055-6", 
        "lat": 34.860801, 
        "lng": 128.422792, 
        "menu": "장어탕, 장어구이", 
        "name": "장어마을", 
        "tel": "055-642-2238"
    }, 
    {
        "addr1": "경상남도 통영시 광도면 죽림4로 41-39", 
        "addr2": "대한민국 경상남도 통영시 광도면 죽림리 1570-27", 
        "lat": 34.884857, 
        "lng": 128.419888, 
        "menu": "추어탕, 추어전골", 
        "name": "조바우가마솥추어탕", 
        "tel": "055-648-3466"
    }, 
    {
        "addr1": "경상남도 진주시 촉석로207번길 3(대안동)", 
        "addr2": "대한민국 경상남도 진주시 대안동 4-1", 
        "lat": 35.196084, 
        "lng": 128.084499, 
        "menu": "비빔밥, 불고기", 
        "name": "천황식당", 
        "tel": "055-741-2646"
    }, 
    {
        "addr1": "경상남도 통영시 원문로 11(북신동)", 
        "addr2": "대한민국 경상남도 통영시 북신동 697", 
        "lat": 34.857188, 
        "lng": 128.426537, 
        "menu": "모둠회", 
        "name": "칠미횟센타", 
        "tel": "055-641-2929"
    }, 
    {
        "addr1": "경상남도 통영시 광도면 죽림해안로 118-17", 
        "addr2": "대한민국 경상남도 통영시 광도면 죽림리 1574-52", 
        "lat": 34.880495, 
        "lng": 128.421706, 
        "menu": "해물찜", 
        "name": "통영손맛해물찜", 
        "tel": "055-645-0078"
    }, 
    {
        "addr1": "제주특별자치도 제주시 신대로 119(연동)", 
        "addr2": "대한민국 제주특별자치도 제주시 연동 303-30", 
        "lat": 33.486572, 
        "lng": 126.496819, 
        "menu": "동태찌개, 김치찌개", 
        "name": "고니식당", 
        "tel": "064-742-5155"
    }, 
    {
        "addr1": "제주특별자치도 제주시 은남길 38(연동)", 
        "addr2": "대한민국 제주특별자치도 제주시 연동 293-58", 
        "lat": 33.487135, 
        "lng": 126.495561, 
        "menu": "고기국수, 돔베고기", 
        "name": "국수만찬", 
        "tel": "064-749-2396"
    }, 
    {
        "addr1": "제주특별자치도 서귀포시 상예로 381(상예동)", 
        "addr2": "대한민국 제주특별자치도 서귀포시 상예동 144", 
        "lat": 33.277704, 
        "lng": 126.395383, 
        "menu": "꿩샤브샤브, 꿩튀김", 
        "name": "대유랜드", 
        "tel": "064-738-0500"
    }, 
    {
        "addr1": "제주특별자치도 제주시 신산로11길 53(일도2동)", 
        "addr2": "대한민국 제주특별자치도 제주시 일도2동 320-14", 
        "lat": 33.51004, 
        "lng": 126.538753, 
        "menu": "각재기국, 해물뚝배기", 
        "name": "돌하르방식당", 
        "tel": "064-752-7580"
    }, 
    {
        "addr1": "제주특별자치도 제주시 연동7길 19(연동)", 
        "addr2": "대한민국 제주특별자치도 제주시 연동 272-35", 
        "lat": 33.488184, 
        "lng": 126.49099, 
        "menu": "일본라멘, 돈부리", 
        "name": "라멘신주쿠", 
        "tel": "064-712-1020"
    }, 
    {
        "addr1": "제주특별자치도 서귀포시 대정읍 하모이삼로 62  ", 
        "addr2": "대한민국 제주특별자치도 서귀포시 대정읍 하모리 864-3", 
        "lat": 33.223458, 
        "lng": 126.254258, 
        "menu": "밀냉면, 수육", 
        "name": "산방식당", 
        "tel": "064-794-2165"
    }, 
    {
        "addr1": "제주특별자치도 서귀포시 법환로 24(법환동)", 
        "addr2": "대한민국 제주특별자치도 서귀포시 법환동 229", 
        "lat": 33.237181, 
        "lng": 126.512988, 
        "menu": "흑돼지왕돈가스", 
        "name": "안트레", 
        "tel": "064-738-7720"
    }, 
    {
        "addr1": "제주특별자치도 제주시 신광로6길 2(연동)", 
        "addr2": "대한민국 제주특별자치도 제주시 연동 261-18", 
        "lat": 33.488043, 
        "lng": 126.489652, 
        "menu": "떡볶이, 김밥, 튀김", 
        "name": "제원분식", 
        "tel": "064-747-6941"
    }, 
    {
        "addr1": "제주특별자치도 제주시 문송길 27(연동, 1층)", 
        "addr2": "대한민국 제주특별자치도 제주시 연동 313-2", 
        "lat": 33.487299, 
        "lng": 126.497453, 
        "menu": "설렁탕, 꼬리곰탕", 
        "name": "제주옹기설렁탕", 
        "tel": "064-711-0678"
    }, 
    {
        "addr1": "제주특별자치도 제주시 애월읍 유수암평화5길 21  ", 
        "addr2": "대한민국 제주특별자치도 제주시 애월읍 유수암리 1042-7", 
        "lat": 33.423687, 
        "lng": 126.406267, 
        "menu": "산채비빔밥, 백숙", 
        "name": "참솔", 
        "tel": "064-799-6638"
    }, 
    {
        "addr1": "제주특별자치도 서귀포시 돈내코로 95", 
        "addr2": "대한민국 제주특별자치도 서귀포시 상효동 1457-1", 
        "lat": 33.299455, 
        "lng": 126.58667, 
        "menu": "꿩샤브샤브, 백숙", 
        "name": "한라성식당", 
        "tel": "064-732-9041"
    }, 
    {
        "addr1": "제주특별자치도 제주시 구좌읍 동복로 39-3  ", 
        "addr2": "대한민국 제주특별자치도 제주시 구좌읍 동복리 1638-1", 
        "lat": 33.553649, 
        "lng": 126.709931, 
        "menu": "회국수", 
        "name": "해녀촌", 
        "tel": "064-783-5438"
    }, 
    {
        "addr1": "제주특별자치도 서귀포시 대정읍 하모항구로 76", 
        "addr2": "대한민국 제주특별자치도 서귀포시 대정읍 하모리 938-4", 
        "lat": 33.220115, 
        "lng": 126.251788, 
        "menu": "해물짬뽕, 해물짜장", 
        "name": "홍성방", 
        "tel": "064-794-9555"
    }
]